$GPGGA,135223.067,5230.813,N,01324.060,E,1,12,1.0,0.0,M,0.0,M,,*67
$GPGSA,A,3,01,02,03,04,05,06,07,08,09,10,11,12,1.0,1.0,1.0*30
$GPRMC,135223.067,A,5230.813,N,01324.060,E,2835241.7,356.6,160321,000.0,W*7E
$GPGGA,135223.068,5231.600,N,01324.014,E,1,12,1.0,0.0,M,0.0,M,,*66
$GPGSA,A,3,01,02,03,04,05,06,07,08,09,10,11,12,1.0,1.0,1.0*30
$GPRMC,135223.068,A,5231.600,N,01324.014,E,2142843.4,086.7,160321,000.0,W*72
$GPGGA,135223.069,5231.656,N,01324.987,E,1,12,1.0,0.0,M,0.0,M,,*67
$GPGSA,A,3,01,02,03,04,05,06,07,08,09,10,11,12,1.0,1.0,1.0*30
$GPRMC,135223.069,A,5231.656,N,01324.987,E,5033667.8,141.1,160321,000.0,W*7B
$GPGGA,135223.070,5230.403,N,01326.002,E,1,12,1.0,0.0,M,0.0,M,,*6A
$GPGSA,A,3,01,02,03,04,05,06,07,08,09,10,11,12,1.0,1.0,1.0*30
$GPRMC,135223.070,A,5230.403,N,01326.002,E,5342189.8,042.5,160321,000.0,W*72
$GPGGA,135223.071,5231.697,N,01327.191,E,1,12,1.0,0.0,M,0.0,M,,*6F
$GPGSA,A,3,01,02,03,04,05,06,07,08,09,10,11,12,1.0,1.0,1.0*30
$GPRMC,135223.071,A,5231.697,N,01327.191,E,8727122.4,277.3,160321,000.0,W*72
$GPGGA,135223.072,5232.192,N,01323.293,E,1,12,1.0,0.0,M,0.0,M,,*68
$GPGSA,A,3,01,02,03,04,05,06,07,08,09,10,11,12,1.0,1.0,1.0*30
$GPRMC,135223.072,A,5232.192,N,01323.293,E,6400142.1,192.3,160321,000.0,W*76
$GPGGA,135223.073,5230.431,N,01322.907,E,1,12,1.0,0.0,M,0.0,M,,*60
$GPGSA,A,3,01,02,03,04,05,06,07,08,09,10,11,12,1.0,1.0,1.0*30
$GPRMC,135223.073,A,5230.431,N,01322.907,E,851758.3,081.0,160321,000.0,W*4F
$GPGGA,135223.074,5230.491,N,01323.283,E,1,12,1.0,0.0,M,0.0,M,,*6B
$GPGSA,A,3,01,02,03,04,05,06,07,08,09,10,11,12,1.0,1.0,1.0*30
$GPRMC,135223.074,A,5230.491,N,01323.283,E,2551309.6,008.7,160321,000.0,W*78
$GPGGA,135223.075,5231.196,N,01323.391,E,1,12,1.0,0.0,M,0.0,M,,*6B
$GPGSA,A,3,01,02,03,04,05,06,07,08,09,10,11,12,1.0,1.0,1.0*30
$GPRMC,135223.075,A,5231.196,N,01323.391,E,484741.1,040.7,160321,000.0,W*40
$GPGGA,135223.076,5231.315,N,01323.494,E,1,12,1.0,0.0,M,0.0,M,,*63
$GPGSA,A,3,01,02,03,04,05,06,07,08,09,10,11,12,1.0,1.0,1.0*30
$GPRMC,135223.076,A,5231.315,N,01323.494,E,2078279.4,003.6,160321,000.0,W*70
$GPGGA,135223.077,5231.891,N,01323.530,E,1,12,1.0,0.0,M,0.0,M,,*6A
$GPGSA,A,3,01,02,03,04,05,06,07,08,09,10,11,12,1.0,1.0,1.0*30
$GPRMC,135223.077,A,5231.891,N,01323.530,E,2785104.3,084.7,160321,000.0,W*7C
$GPGGA,135223.078,5232.007,N,01324.786,E,1,12,1.0,0.0,M,0.0,M,,*69
$GPGSA,A,3,01,02,03,04,05,06,07,08,09,10,11,12,1.0,1.0,1.0*30
$GPRMC,135223.078,A,5232.007,N,01324.786,E,2017060.2,171.6,160321,000.0,W*7B
$GPGGA,135223.079,5231.450,N,01324.869,E,1,12,1.0,0.0,M,0.0,M,,*63
$GPGSA,A,3,01,02,03,04,05,06,07,08,09,10,11,12,1.0,1.0,1.0*30
$GPRMC,135223.079,A,5231.450,N,01324.869,E,2568735.7,196.3,160321,000.0,W*72
$GPGGA,135223.080,5230.748,N,01324.663,E,1,12,1.0,0.0,M,0.0,M,,*6A
$GPGSA,A,3,01,02,03,04,05,06,07,08,09,10,11,12,1.0,1.0,1.0*30
$GPRMC,135223.080,A,5230.748,N,01324.663,E,2180029.2,261.9,160321,000.0,W*77
$GPGGA,135223.081,5230.610,N,01323.695,E,1,12,1.0,0.0,M,0.0,M,,*69
$GPGSA,A,3,01,02,03,04,05,06,07,08,09,10,11,12,1.0,1.0,1.0*30
$GPRMC,135223.081,A,5230.610,N,01323.695,E,1102790.1,060.7,160321,000.0,W*76
$GPGGA,135223.082,5230.817,N,01324.065,E,1,12,1.0,0.0,M,0.0,M,,*6D
$GPGSA,A,3,01,02,03,04,05,06,07,08,09,10,11,12,1.0,1.0,1.0*30
$GPRMC,135223.082,A,5230.817,N,01324.065,E,38889.3,082.6,160321,000.0,W*73
$GPGGA,135223.083,5230.819,N,01324.083,E,1,12,1.0,0.0,M,0.0,M,,*6A
$GPGSA,A,3,01,02,03,04,05,06,07,08,09,10,11,12,1.0,1.0,1.0*30
$GPRMC,135223.083,A,5230.819,N,01324.083,E,38889.3,082.6,160321,000.0,W*74
$GPGGA,135223.084,5230.821,N,01324.100,E,1,12,1.0,0.0,M,0.0,M,,*6C
$GPGSA,A,3,01,02,03,04,05,06,07,08,09,10,11,12,1.0,1.0,1.0*30
$GPRMC,135223.084,A,5230.821,N,01324.100,E,38889.2,082.6,160321,000.0,W*73
$GPGGA,135223.085,5230.823,N,01324.117,E,1,12,1.0,0.0,M,0.0,M,,*69
$GPGSA,A,3,01,02,03,04,05,06,07,08,09,10,11,12,1.0,1.0,1.0*30
$GPRMC,135223.085,A,5230.823,N,01324.117,E,38889.2,082.6,160321,000.0,W*76
$GPGGA,135223.086,5230.826,N,01324.135,E,1,12,1.0,0.0,M,0.0,M,,*6F
$GPGSA,A,3,01,02,03,04,05,06,07,08,09,10,11,12,1.0,1.0,1.0*30
$GPRMC,135223.086,A,5230.826,N,01324.135,E,38889.2,082.6,160321,000.0,W*70
$GPGGA,135223.087,5230.828,N,01324.152,E,1,12,1.0,0.0,M,0.0,M,,*61
$GPGSA,A,3,01,02,03,04,05,06,07,08,09,10,11,12,1.0,1.0,1.0*30
$GPRMC,135223.087,A,5230.828,N,01324.152,E,38889.1,082.6,160321,000.0,W*7D
$GPGGA,135223.088,5230.830,N,01324.169,E,1,12,1.0,0.0,M,0.0,M,,*6F
$GPGSA,A,3,01,02,03,04,05,06,07,08,09,10,11,12,1.0,1.0,1.0*30
$GPRMC,135223.088,A,5230.830,N,01324.169,E,38889.1,082.6,160321,000.0,W*73
$GPGGA,135223.089,5230.832,N,01324.187,E,1,12,1.0,0.0,M,0.0,M,,*6C
$GPGSA,A,3,01,02,03,04,05,06,07,08,09,10,11,12,1.0,1.0,1.0*30
$GPRMC,135223.089,A,5230.832,N,01324.187,E,38889.1,082.6,160321,000.0,W*70
$GPGGA,135223.090,5230.835,N,01324.204,E,1,12,1.0,0.0,M,0.0,M,,*6B
$GPGSA,A,3,01,02,03,04,05,06,07,08,09,10,11,12,1.0,1.0,1.0*30
$GPRMC,135223.090,A,5230.835,N,01324.204,E,38889.0,082.6,160321,000.0,W*76
$GPGGA,135223.091,5230.837,N,01324.221,E,1,12,1.0,0.0,M,0.0,M,,*6F
$GPGSA,A,3,01,02,03,04,05,06,07,08,09,10,11,12,1.0,1.0,1.0*30
$GPRMC,135223.091,A,5230.837,N,01324.221,E,38889.0,082.6,160321,000.0,W*72
$GPGGA,135223.092,5230.839,N,01324.239,E,1,12,1.0,0.0,M,0.0,M,,*6B
$GPGSA,A,3,01,02,03,04,05,06,07,08,09,10,11,12,1.0,1.0,1.0*30
$GPRMC,135223.092,A,5230.839,N,01324.239,E,38889.0,082.6,160321,000.0,W*76
$GPGGA,135223.093,5230.841,N,01324.256,E,1,12,1.0,0.0,M,0.0,M,,*6C
$GPGSA,A,3,01,02,03,04,05,06,07,08,09,10,11,12,1.0,1.0,1.0*30
$GPRMC,135223.093,A,5230.841,N,01324.256,E,38889.0,082.6,160321,000.0,W*71
$GPGGA,135223.094,5230.844,N,01324.273,E,1,12,1.0,0.0,M,0.0,M,,*69
$GPGSA,A,3,01,02,03,04,05,06,07,08,09,10,11,12,1.0,1.0,1.0*30
$GPRMC,135223.094,A,5230.844,N,01324.273,E,38888.9,082.6,160321,000.0,W*7C
$GPGGA,135223.095,5230.846,N,01324.291,E,1,12,1.0,0.0,M,0.0,M,,*66
$GPGSA,A,3,01,02,03,04,05,06,07,08,09,10,11,12,1.0,1.0,1.0*30
$GPRMC,135223.095,A,5230.846,N,01324.291,E,38888.9,082.6,160321,000.0,W*73
$GPGGA,135223.096,5230.848,N,01324.308,E,1,12,1.0,0.0,M,0.0,M,,*6A
$GPGSA,A,3,01,02,03,04,05,06,07,08,09,10,11,12,1.0,1.0,1.0*30
$GPRMC,135223.096,A,5230.848,N,01324.308,E,38888.9,082.6,160321,000.0,W*7F
$GPGGA,135223.097,5230.850,N,01324.326,E,1,12,1.0,0.0,M,0.0,M,,*6E
$GPGSA,A,3,01,02,03,04,05,06,07,08,09,10,11,12,1.0,1.0,1.0*30
$GPRMC,135223.097,A,5230.850,N,01324.326,E,38888.8,082.6,160321,000.0,W*7A
$GPGGA,135223.098,5230.853,N,01324.343,E,1,12,1.0,0.0,M,0.0,M,,*61
$GPGSA,A,3,01,02,03,04,05,06,07,08,09,10,11,12,1.0,1.0,1.0*30
$GPRMC,135223.098,A,5230.853,N,01324.343,E,38888.8,082.6,160321,000.0,W*75
$GPGGA,135223.099,5230.855,N,01324.360,E,1,12,1.0,0.0,M,0.0,M,,*67
$GPGSA,A,3,01,02,03,04,05,06,07,08,09,10,11,12,1.0,1.0,1.0*30
$GPRMC,135223.099,A,5230.855,N,01324.360,E,38888.8,082.6,160321,000.0,W*73
$GPGGA,135223.100,5230.857,N,01324.378,E,1,12,1.0,0.0,M,0.0,M,,*6D
$GPGSA,A,3,01,02,03,04,05,06,07,08,09,10,11,12,1.0,1.0,1.0*30
$GPRMC,135223.100,A,5230.857,N,01324.378,E,38888.7,082.6,160321,000.0,W*76
$GPGGA,135223.101,5230.859,N,01324.395,E,1,12,1.0,0.0,M,0.0,M,,*61
$GPGSA,A,3,01,02,03,04,05,06,07,08,09,10,11,12,1.0,1.0,1.0*30
$GPRMC,135223.101,A,5230.859,N,01324.395,E,38888.7,082.6,160321,000.0,W*7A
$GPGGA,135223.102,5230.862,N,01324.412,E,1,12,1.0,0.0,M,0.0,M,,*62
$GPGSA,A,3,01,02,03,04,05,06,07,08,09,10,11,12,1.0,1.0,1.0*30
$GPRMC,135223.102,A,5230.862,N,01324.412,E,38888.7,082.6,160321,000.0,W*79
$GPGGA,135223.103,5230.864,N,01324.430,E,1,12,1.0,0.0,M,0.0,M,,*65
$GPGSA,A,3,01,02,03,04,05,06,07,08,09,10,11,12,1.0,1.0,1.0*30
$GPRMC,135223.103,A,5230.864,N,01324.430,E,38888.6,082.6,160321,000.0,W*7F
$GPGGA,135223.104,5230.866,N,01324.447,E,1,12,1.0,0.0,M,0.0,M,,*60
$GPGSA,A,3,01,02,03,04,05,06,07,08,09,10,11,12,1.0,1.0,1.0*30
$GPRMC,135223.104,A,5230.866,N,01324.447,E,38888.6,082.6,160321,000.0,W*7A
$GPGGA,135223.105,5230.868,N,01324.464,E,1,12,1.0,0.0,M,0.0,M,,*6E
$GPGSA,A,3,01,02,03,04,05,06,07,08,09,10,11,12,1.0,1.0,1.0*30
$GPRMC,135223.105,A,5230.868,N,01324.464,E,38888.6,082.6,160321,000.0,W*74
$GPGGA,135223.106,5230.871,N,01324.482,E,1,12,1.0,0.0,M,0.0,M,,*6D
$GPGSA,A,3,01,02,03,04,05,06,07,08,09,10,11,12,1.0,1.0,1.0*30
$GPRMC,135223.106,A,5230.871,N,01324.482,E,38888.5,082.6,160321,000.0,W*74
$GPGGA,135223.107,5230.873,N,01324.499,E,1,12,1.0,0.0,M,0.0,M,,*64
$GPGSA,A,3,01,02,03,04,05,06,07,08,09,10,11,12,1.0,1.0,1.0*30
$GPRMC,135223.107,A,5230.873,N,01324.499,E,38888.5,082.6,160321,000.0,W*7D
$GPGGA,135223.108,5230.875,N,01324.516,E,1,12,1.0,0.0,M,0.0,M,,*6B
$GPGSA,A,3,01,02,03,04,05,06,07,08,09,10,11,12,1.0,1.0,1.0*30
$GPRMC,135223.108,A,5230.875,N,01324.516,E,38888.5,082.6,160321,000.0,W*72
$GPGGA,135223.109,5230.877,N,01324.534,E,1,12,1.0,0.0,M,0.0,M,,*68
$GPGSA,A,3,01,02,03,04,05,06,07,08,09,10,11,12,1.0,1.0,1.0*30
$GPRMC,135223.109,A,5230.877,N,01324.534,E,38888.4,082.6,160321,000.0,W*70
$GPGGA,135223.110,5230.880,N,01324.551,E,1,12,1.0,0.0,M,0.0,M,,*6B
$GPGSA,A,3,01,02,03,04,05,06,07,08,09,10,11,12,1.0,1.0,1.0*30
$GPRMC,135223.110,A,5230.880,N,01324.551,E,38888.4,082.6,160321,000.0,W*73
$GPGGA,135223.111,5230.882,N,01324.568,E,1,12,1.0,0.0,M,0.0,M,,*62
$GPGSA,A,3,01,02,03,04,05,06,07,08,09,10,11,12,1.0,1.0,1.0*30
$GPRMC,135223.111,A,5230.882,N,01324.568,E,38888.4,082.6,160321,000.0,W*7A
$GPGGA,135223.112,5230.884,N,01324.586,E,1,12,1.0,0.0,M,0.0,M,,*67
$GPGSA,A,3,01,02,03,04,05,06,07,08,09,10,11,12,1.0,1.0,1.0*30
$GPRMC,135223.112,A,5230.884,N,01324.586,E,38888.3,082.6,160321,000.0,W*78
$GPGGA,135223.113,5230.886,N,01324.603,E,1,12,1.0,0.0,M,0.0,M,,*6A
$GPGSA,A,3,01,02,03,04,05,06,07,08,09,10,11,12,1.0,1.0,1.0*30
$GPRMC,135223.113,A,5230.886,N,01324.603,E,38888.3,082.6,160321,000.0,W*75
$GPGGA,135223.114,5230.889,N,01324.620,E,1,12,1.0,0.0,M,0.0,M,,*63
$GPGSA,A,3,01,02,03,04,05,06,07,08,09,10,11,12,1.0,1.0,1.0*30
$GPRMC,135223.114,A,5230.889,N,01324.620,E,38888.3,082.6,160321,000.0,W*7C
$GPGGA,135223.115,5230.891,N,01324.638,E,1,12,1.0,0.0,M,0.0,M,,*62
$GPGSA,A,3,01,02,03,04,05,06,07,08,09,10,11,12,1.0,1.0,1.0*30
$GPRMC,135223.115,A,5230.891,N,01324.638,E,38888.3,082.6,160321,000.0,W*7D
$GPGGA,135223.116,5230.893,N,01324.655,E,1,12,1.0,0.0,M,0.0,M,,*68
$GPGSA,A,3,01,02,03,04,05,06,07,08,09,10,11,12,1.0,1.0,1.0*30
$GPRMC,135223.116,A,5230.893,N,01324.655,E,38888.2,082.6,160321,000.0,W*76
$GPGGA,135223.117,5230.895,N,01324.672,E,1,12,1.0,0.0,M,0.0,M,,*6A
$GPGSA,A,3,01,02,03,04,05,06,07,08,09,10,11,12,1.0,1.0,1.0*30
$GPRMC,135223.117,A,5230.895,N,01324.672,E,38888.2,082.6,160321,000.0,W*74
$GPGGA,135223.118,5230.898,N,01324.690,E,1,12,1.0,0.0,M,0.0,M,,*64
$GPGSA,A,3,01,02,03,04,05,06,07,08,09,10,11,12,1.0,1.0,1.0*30
$GPRMC,135223.118,A,5230.898,N,01324.690,E,38888.2,082.6,160321,000.0,W*7A
$GPGGA,135223.119,5230.900,N,01324.707,E,1,12,1.0,0.0,M,0.0,M,,*6A
$GPGSA,A,3,01,02,03,04,05,06,07,08,09,10,11,12,1.0,1.0,1.0*30
$GPRMC,135223.119,A,5230.900,N,01324.707,E,38888.1,082.6,160321,000.0,W*77
$GPGGA,135223.120,5230.902,N,01324.725,E,1,12,1.0,0.0,M,0.0,M,,*62
$GPGSA,A,3,01,02,03,04,05,06,07,08,09,10,11,12,1.0,1.0,1.0*30
$GPRMC,135223.120,A,5230.902,N,01324.725,E,38888.1,082.6,160321,000.0,W*7F
$GPGGA,135223.121,5230.905,N,01324.742,E,1,12,1.0,0.0,M,0.0,M,,*65
$GPGSA,A,3,01,02,03,04,05,06,07,08,09,10,11,12,1.0,1.0,1.0*30
$GPRMC,135223.121,A,5230.905,N,01324.742,E,38888.1,082.6,160321,000.0,W*78
$GPGGA,135223.122,5230.907,N,01324.759,E,1,12,1.0,0.0,M,0.0,M,,*6E
$GPGSA,A,3,01,02,03,04,05,06,07,08,09,10,11,12,1.0,1.0,1.0*30
$GPRMC,135223.122,A,5230.907,N,01324.759,E,38888.0,082.6,160321,000.0,W*72
$GPGGA,135223.123,5230.909,N,01324.777,E,1,12,1.0,0.0,M,0.0,M,,*6D
$GPGSA,A,3,01,02,03,04,05,06,07,08,09,10,11,12,1.0,1.0,1.0*30
$GPRMC,135223.123,A,5230.909,N,01324.777,E,38888.0,082.6,160321,000.0,W*71
$GPGGA,135223.124,5230.911,N,01324.794,E,1,12,1.0,0.0,M,0.0,M,,*6E
$GPGSA,A,3,01,02,03,04,05,06,07,08,09,10,11,12,1.0,1.0,1.0*30
$GPRMC,135223.124,A,5230.911,N,01324.794,E,38888.0,082.6,160321,000.0,W*72
$GPGGA,135223.125,5230.914,N,01324.811,E,1,12,1.0,0.0,M,0.0,M,,*68
$GPGSA,A,3,01,02,03,04,05,06,07,08,09,10,11,12,1.0,1.0,1.0*30
$GPRMC,135223.125,A,5230.914,N,01324.811,E,38887.9,082.6,160321,000.0,W*72
$GPGGA,135223.126,5230.916,N,01324.829,E,1,12,1.0,0.0,M,0.0,M,,*62
$GPGSA,A,3,01,02,03,04,05,06,07,08,09,10,11,12,1.0,1.0,1.0*30
$GPRMC,135223.126,A,5230.916,N,01324.829,E,38887.9,082.6,160321,000.0,W*78
$GPGGA,135223.127,5230.918,N,01324.846,E,1,12,1.0,0.0,M,0.0,M,,*64
$GPGSA,A,3,01,02,03,04,05,06,07,08,09,10,11,12,1.0,1.0,1.0*30
$GPRMC,135223.127,A,5230.918,N,01324.846,E,38887.9,082.6,160321,000.0,W*7E
$GPGGA,135223.128,5230.920,N,01324.863,E,1,12,1.0,0.0,M,0.0,M,,*67
$GPGSA,A,3,01,02,03,04,05,06,07,08,09,10,11,12,1.0,1.0,1.0*30
$GPRMC,135223.128,A,5230.920,N,01324.863,E,38887.8,082.6,160321,000.0,W*7C
$GPGGA,135223.129,5230.923,N,01324.881,E,1,12,1.0,0.0,M,0.0,M,,*69
$GPGSA,A,3,01,02,03,04,05,06,07,08,09,10,11,12,1.0,1.0,1.0*30
$GPRMC,135223.129,A,5230.923,N,01324.881,E,38887.8,082.6,160321,000.0,W*72
$GPGGA,135223.130,5230.925,N,01324.898,E,1,12,1.0,0.0,M,0.0,M,,*6F
$GPGSA,A,3,01,02,03,04,05,06,07,08,09,10,11,12,1.0,1.0,1.0*30
$GPRMC,135223.130,A,5230.925,N,01324.898,E,38887.8,082.6,160321,000.0,W*74
$GPGGA,135223.131,5230.927,N,01324.915,E,1,12,1.0,0.0,M,0.0,M,,*68
$GPGSA,A,3,01,02,03,04,05,06,07,08,09,10,11,12,1.0,1.0,1.0*30
$GPRMC,135223.131,A,5230.927,N,01324.915,E,38887.7,082.6,160321,000.0,W*7C
$GPGGA,135223.132,5230.929,N,01324.933,E,1,12,1.0,0.0,M,0.0,M,,*61
$GPGSA,A,3,01,02,03,04,05,06,07,08,09,10,11,12,1.0,1.0,1.0*30
$GPRMC,135223.132,A,5230.929,N,01324.933,E,38887.7,082.6,160321,000.0,W*75
$GPGGA,135223.133,5230.932,N,01324.950,E,1,12,1.0,0.0,M,0.0,M,,*6F
$GPGSA,A,3,01,02,03,04,05,06,07,08,09,10,11,12,1.0,1.0,1.0*30
$GPRMC,135223.133,A,5230.932,N,01324.950,E,38887.7,082.6,160321,000.0,W*7B
$GPGGA,135223.134,5230.934,N,01324.967,E,1,12,1.0,0.0,M,0.0,M,,*6A
$GPGSA,A,3,01,02,03,04,05,06,07,08,09,10,11,12,1.0,1.0,1.0*30
$GPRMC,135223.134,A,5230.934,N,01324.967,E,38887.6,082.6,160321,000.0,W*7F
$GPGGA,135223.135,5230.936,N,01324.985,E,1,12,1.0,0.0,M,0.0,M,,*65
$GPGSA,A,3,01,02,03,04,05,06,07,08,09,10,11,12,1.0,1.0,1.0*30
$GPRMC,135223.135,A,5230.936,N,01324.985,E,38887.6,082.6,160321,000.0,W*70
$GPGGA,135223.136,5230.938,N,01325.002,E,1,12,1.0,0.0,M,0.0,M,,*6F
$GPGSA,A,3,01,02,03,04,05,06,07,08,09,10,11,12,1.0,1.0,1.0*30
$GPRMC,135223.136,A,5230.938,N,01325.002,E,38887.6,082.6,160321,000.0,W*7A
$GPGGA,135223.137,5230.941,N,01325.019,E,1,12,1.0,0.0,M,0.0,M,,*6A
$GPGSA,A,3,01,02,03,04,05,06,07,08,09,10,11,12,1.0,1.0,1.0*30
$GPRMC,135223.137,A,5230.941,N,01325.019,E,38887.6,082.6,160321,000.0,W*7F
$GPGGA,135223.138,5230.943,N,01325.037,E,1,12,1.0,0.0,M,0.0,M,,*6B
$GPGSA,A,3,01,02,03,04,05,06,07,08,09,10,11,12,1.0,1.0,1.0*30
$GPRMC,135223.138,A,5230.943,N,01325.037,E,38887.5,082.6,160321,000.0,W*7D
$GPGGA,135223.139,5230.945,N,01325.054,E,1,12,1.0,0.0,M,0.0,M,,*69
$GPGSA,A,3,01,02,03,04,05,06,07,08,09,10,11,12,1.0,1.0,1.0*30
$GPRMC,135223.139,A,5230.945,N,01325.054,E,38887.5,082.6,160321,000.0,W*7F
$GPGGA,135223.140,5230.947,N,01325.071,E,1,12,1.0,0.0,M,0.0,M,,*62
$GPGSA,A,3,01,02,03,04,05,06,07,08,09,10,11,12,1.0,1.0,1.0*30
$GPRMC,135223.140,A,5230.947,N,01325.071,E,38887.5,082.6,160321,000.0,W*74
$GPGGA,135223.141,5230.950,N,01325.089,E,1,12,1.0,0.0,M,0.0,M,,*62
$GPGSA,A,3,01,02,03,04,05,06,07,08,09,10,11,12,1.0,1.0,1.0*30
$GPRMC,135223.141,A,5230.950,N,01325.089,E,38887.4,082.6,160321,000.0,W*75
$GPGGA,135223.142,5230.952,N,01325.106,E,1,12,1.0,0.0,M,0.0,M,,*65
$GPGSA,A,3,01,02,03,04,05,06,07,08,09,10,11,12,1.0,1.0,1.0*30
$GPRMC,135223.142,A,5230.952,N,01325.106,E,38887.4,082.6,160321,000.0,W*72
$GPGGA,135223.143,5230.954,N,01325.124,E,1,12,1.0,0.0,M,0.0,M,,*62
$GPGSA,A,3,01,02,03,04,05,06,07,08,09,10,11,12,1.0,1.0,1.0*30
$GPRMC,135223.143,A,5230.954,N,01325.124,E,38887.4,082.6,160321,000.0,W*75
$GPGGA,135223.144,5230.956,N,01325.141,E,1,12,1.0,0.0,M,0.0,M,,*64
$GPGSA,A,3,01,02,03,04,05,06,07,08,09,10,11,12,1.0,1.0,1.0*30
$GPRMC,135223.144,A,5230.956,N,01325.141,E,38887.3,082.6,160321,000.0,W*74
$GPGGA,135223.145,5230.959,N,01325.158,E,1,12,1.0,0.0,M,0.0,M,,*62
$GPGSA,A,3,01,02,03,04,05,06,07,08,09,10,11,12,1.0,1.0,1.0*30
$GPRMC,135223.145,A,5230.959,N,01325.158,E,38887.3,082.6,160321,000.0,W*72
$GPGGA,135223.146,5230.961,N,01325.176,E,1,12,1.0,0.0,M,0.0,M,,*66
$GPGSA,A,3,01,02,03,04,05,06,07,08,09,10,11,12,1.0,1.0,1.0*30
$GPRMC,135223.146,A,5230.961,N,01325.176,E,38887.3,082.6,160321,000.0,W*76
$GPGGA,135223.147,5230.963,N,01325.193,E,1,12,1.0,0.0,M,0.0,M,,*6E
$GPGSA,A,3,01,02,03,04,05,06,07,08,09,10,11,12,1.0,1.0,1.0*30
$GPRMC,135223.147,A,5230.963,N,01325.193,E,38887.2,082.6,160321,000.0,W*7F
$GPGGA,135223.148,5230.965,N,01325.210,E,1,12,1.0,0.0,M,0.0,M,,*6F
$GPGSA,A,3,01,02,03,04,05,06,07,08,09,10,11,12,1.0,1.0,1.0*30
$GPRMC,135223.148,A,5230.965,N,01325.210,E,38887.2,082.6,160321,000.0,W*7E
$GPGGA,135223.149,5230.968,N,01325.228,E,1,12,1.0,0.0,M,0.0,M,,*68
$GPGSA,A,3,01,02,03,04,05,06,07,08,09,10,11,12,1.0,1.0,1.0*30
$GPRMC,135223.149,A,5230.968,N,01325.228,E,38887.2,082.6,160321,000.0,W*79
$GPGGA,135223.150,5230.970,N,01325.245,E,1,12,1.0,0.0,M,0.0,M,,*62
$GPGSA,A,3,01,02,03,04,05,06,07,08,09,10,11,12,1.0,1.0,1.0*30
$GPRMC,135223.150,A,5230.970,N,01325.245,E,38887.1,082.6,160321,000.0,W*70
$GPGGA,135223.151,5230.972,N,01325.262,E,1,12,1.0,0.0,M,0.0,M,,*64
$GPGSA,A,3,01,02,03,04,05,06,07,08,09,10,11,12,1.0,1.0,1.0*30
$GPRMC,135223.151,A,5230.972,N,01325.262,E,38887.1,082.6,160321,000.0,W*76
$GPGGA,135223.152,5230.974,N,01325.280,E,1,12,1.0,0.0,M,0.0,M,,*6D
$GPGSA,A,3,01,02,03,04,05,06,07,08,09,10,11,12,1.0,1.0,1.0*30
$GPRMC,135223.152,A,5230.974,N,01325.280,E,38887.1,082.6,160321,000.0,W*7F
$GPGGA,135223.153,5230.977,N,01325.297,E,1,12,1.0,0.0,M,0.0,M,,*69
$GPGSA,A,3,01,02,03,04,05,06,07,08,09,10,11,12,1.0,1.0,1.0*30
$GPRMC,135223.153,A,5230.977,N,01325.297,E,38887.0,082.6,160321,000.0,W*7A
$GPGGA,135223.154,5230.979,N,01325.314,E,1,12,1.0,0.0,M,0.0,M,,*6A
$GPGSA,A,3,01,02,03,04,05,06,07,08,09,10,11,12,1.0,1.0,1.0*30
$GPRMC,135223.154,A,5230.979,N,01325.314,E,38887.0,082.6,160321,000.0,W*79
$GPGGA,135223.155,5230.981,N,01325.332,E,1,12,1.0,0.0,M,0.0,M,,*68
$GPGSA,A,3,01,02,03,04,05,06,07,08,09,10,11,12,1.0,1.0,1.0*30
$GPRMC,135223.155,A,5230.981,N,01325.332,E,38887.0,082.6,160321,000.0,W*7B
$GPGGA,135223.156,5230.983,N,01325.349,E,1,12,1.0,0.0,M,0.0,M,,*65
$GPGSA,A,3,01,02,03,04,05,06,07,08,09,10,11,12,1.0,1.0,1.0*30
$GPRMC,135223.156,A,5230.983,N,01325.349,E,38886.9,082.6,160321,000.0,W*7E
$GPGGA,135223.157,5230.986,N,01325.366,E,1,12,1.0,0.0,M,0.0,M,,*6C
$GPGSA,A,3,01,02,03,04,05,06,07,08,09,10,11,12,1.0,1.0,1.0*30
$GPRMC,135223.157,A,5230.986,N,01325.366,E,38886.9,082.6,160321,000.0,W*77
$GPGGA,135223.158,5230.988,N,01325.384,E,1,12,1.0,0.0,M,0.0,M,,*61
$GPGSA,A,3,01,02,03,04,05,06,07,08,09,10,11,12,1.0,1.0,1.0*30
$GPRMC,135223.158,A,5230.988,N,01325.384,E,38886.9,082.6,160321,000.0,W*7A
$GPGGA,135223.159,5230.990,N,01325.401,E,1,12,1.0,0.0,M,0.0,M,,*63
$GPGSA,A,3,01,02,03,04,05,06,07,08,09,10,11,12,1.0,1.0,1.0*30
$GPRMC,135223.159,A,5230.990,N,01325.401,E,38886.9,082.6,160321,000.0,W*78
$GPGGA,135223.160,5230.992,N,01325.418,E,1,12,1.0,0.0,M,0.0,M,,*63
$GPGSA,A,3,01,02,03,04,05,06,07,08,09,10,11,12,1.0,1.0,1.0*30
$GPRMC,135223.160,A,5230.992,N,01325.418,E,38886.8,082.6,160321,000.0,W*79
$GPGGA,135223.161,5230.995,N,01325.436,E,1,12,1.0,0.0,M,0.0,M,,*69
$GPGSA,A,3,01,02,03,04,05,06,07,08,09,10,11,12,1.0,1.0,1.0*30
$GPRMC,135223.161,A,5230.995,N,01325.436,E,38886.8,082.6,160321,000.0,W*73
$GPGGA,135223.162,5230.997,N,01325.453,E,1,12,1.0,0.0,M,0.0,M,,*6B
$GPGSA,A,3,01,02,03,04,05,06,07,08,09,10,11,12,1.0,1.0,1.0*30
$GPRMC,135223.162,A,5230.997,N,01325.453,E,38886.8,082.6,160321,000.0,W*71
$GPGGA,135223.163,5230.999,N,01325.470,E,1,12,1.0,0.0,M,0.0,M,,*65
$GPGSA,A,3,01,02,03,04,05,06,07,08,09,10,11,12,1.0,1.0,1.0*30
$GPRMC,135223.163,A,5230.999,N,01325.470,E,38886.7,082.6,160321,000.0,W*70
$GPGGA,135223.164,5231.001,N,01325.488,E,1,12,1.0,0.0,M,0.0,M,,*6C
$GPGSA,A,3,01,02,03,04,05,06,07,08,09,10,11,12,1.0,1.0,1.0*30
$GPRMC,135223.164,A,5231.001,N,01325.488,E,38886.7,082.6,160321,000.0,W*79
$GPGGA,135223.165,5231.004,N,01325.505,E,1,12,1.0,0.0,M,0.0,M,,*6C
$GPGSA,A,3,01,02,03,04,05,06,07,08,09,10,11,12,1.0,1.0,1.0*30
$GPRMC,135223.165,A,5231.004,N,01325.505,E,38886.7,082.6,160321,000.0,W*79
$GPGGA,135223.166,5231.006,N,01325.523,E,1,12,1.0,0.0,M,0.0,M,,*69
$GPGSA,A,3,01,02,03,04,05,06,07,08,09,10,11,12,1.0,1.0,1.0*30
$GPRMC,135223.166,A,5231.006,N,01325.523,E,38886.6,082.6,160321,000.0,W*7D
$GPGGA,135223.167,5231.008,N,01325.540,E,1,12,1.0,0.0,M,0.0,M,,*63
$GPGSA,A,3,01,02,03,04,05,06,07,08,09,10,11,12,1.0,1.0,1.0*30
$GPRMC,135223.167,A,5231.008,N,01325.540,E,38886.6,082.6,160321,000.0,W*77
$GPGGA,135223.168,5231.010,N,01325.557,E,1,12,1.0,0.0,M,0.0,M,,*63
$GPGSA,A,3,01,02,03,04,05,06,07,08,09,10,11,12,1.0,1.0,1.0*30
$GPRMC,135223.168,A,5231.010,N,01325.557,E,38886.6,082.6,160321,000.0,W*77
$GPGGA,135223.169,5231.013,N,01325.575,E,1,12,1.0,0.0,M,0.0,M,,*61
$GPGSA,A,3,01,02,03,04,05,06,07,08,09,10,11,12,1.0,1.0,1.0*30
$GPRMC,135223.169,A,5231.013,N,01325.575,E,38886.5,082.6,160321,000.0,W*76
$GPGGA,135223.170,5231.015,N,01325.592,E,1,12,1.0,0.0,M,0.0,M,,*66
$GPGSA,A,3,01,02,03,04,05,06,07,08,09,10,11,12,1.0,1.0,1.0*30
$GPRMC,135223.170,A,5231.015,N,01325.592,E,38886.5,082.6,160321,000.0,W*71
$GPGGA,135223.171,5231.017,N,01325.609,E,1,12,1.0,0.0,M,0.0,M,,*64
$GPGSA,A,3,01,02,03,04,05,06,07,08,09,10,11,12,1.0,1.0,1.0*30
$GPRMC,135223.171,A,5231.017,N,01325.609,E,38886.5,082.6,160321,000.0,W*73
$GPGGA,135223.172,5231.020,N,01325.627,E,1,12,1.0,0.0,M,0.0,M,,*6F
$GPGSA,A,3,01,02,03,04,05,06,07,08,09,10,11,12,1.0,1.0,1.0*30
$GPRMC,135223.172,A,5231.020,N,01325.627,E,38886.4,082.6,160321,000.0,W*79
$GPGGA,135223.173,5231.022,N,01325.644,E,1,12,1.0,0.0,M,0.0,M,,*69
$GPGSA,A,3,01,02,03,04,05,06,07,08,09,10,11,12,1.0,1.0,1.0*30
$GPRMC,135223.173,A,5231.022,N,01325.644,E,38886.4,082.6,160321,000.0,W*7F
$GPGGA,135223.174,5231.024,N,01325.661,E,1,12,1.0,0.0,M,0.0,M,,*6F
$GPGSA,A,3,01,02,03,04,05,06,07,08,09,10,11,12,1.0,1.0,1.0*30
$GPRMC,135223.174,A,5231.024,N,01325.661,E,38886.4,082.6,160321,000.0,W*79
$GPGGA,135223.175,5231.026,N,01325.679,E,1,12,1.0,0.0,M,0.0,M,,*65
$GPGSA,A,3,01,02,03,04,05,06,07,08,09,10,11,12,1.0,1.0,1.0*30
$GPRMC,135223.175,A,5231.026,N,01325.679,E,38886.3,082.6,160321,000.0,W*74
$GPGGA,135223.176,5231.029,N,01325.696,E,1,12,1.0,0.0,M,0.0,M,,*68
$GPGSA,A,3,01,02,03,04,05,06,07,08,09,10,11,12,1.0,1.0,1.0*30
$GPRMC,135223.176,A,5231.029,N,01325.696,E,38886.3,082.6,160321,000.0,W*79
$GPGGA,135223.177,5231.031,N,01325.713,E,1,12,1.0,0.0,M,0.0,M,,*6C
$GPGSA,A,3,01,02,03,04,05,06,07,08,09,10,11,12,1.0,1.0,1.0*30
$GPRMC,135223.177,A,5231.031,N,01325.713,E,38886.3,082.6,160321,000.0,W*7D
$GPGGA,135223.178,5231.033,N,01325.731,E,1,12,1.0,0.0,M,0.0,M,,*61
$GPGSA,A,3,01,02,03,04,05,06,07,08,09,10,11,12,1.0,1.0,1.0*30
$GPRMC,135223.178,A,5231.033,N,01325.731,E,38886.2,082.6,160321,000.0,W*71
$GPGGA,135223.179,5231.035,N,01325.748,E,1,12,1.0,0.0,M,0.0,M,,*68
$GPGSA,A,3,01,02,03,04,05,06,07,08,09,10,11,12,1.0,1.0,1.0*30
$GPRMC,135223.179,A,5231.035,N,01325.748,E,38886.2,082.6,160321,000.0,W*78
$GPGGA,135223.180,5231.038,N,01325.765,E,1,12,1.0,0.0,M,0.0,M,,*6C
$GPGSA,A,3,01,02,03,04,05,06,07,08,09,10,11,12,1.0,1.0,1.0*30
$GPRMC,135223.180,A,5231.038,N,01325.765,E,38886.2,082.6,160321,000.0,W*7C
$GPGGA,135223.181,5231.040,N,01325.783,E,1,12,1.0,0.0,M,0.0,M,,*6A
$GPGSA,A,3,01,02,03,04,05,06,07,08,09,10,11,12,1.0,1.0,1.0*30
$GPRMC,135223.181,A,5231.040,N,01325.783,E,38886.2,082.6,160321,000.0,W*7A
$GPGGA,135223.182,5231.042,N,01325.800,E,1,12,1.0,0.0,M,0.0,M,,*6F
$GPGSA,A,3,01,02,03,04,05,06,07,08,09,10,11,12,1.0,1.0,1.0*30
$GPRMC,135223.182,A,5231.042,N,01325.800,E,38886.1,082.6,160321,000.0,W*7C
$GPGGA,135223.183,5231.044,N,01325.817,E,1,12,1.0,0.0,M,0.0,M,,*6E
$GPGSA,A,3,01,02,03,04,05,06,07,08,09,10,11,12,1.0,1.0,1.0*30
$GPRMC,135223.183,A,5231.044,N,01325.817,E,38886.1,082.6,160321,000.0,W*7D
$GPGGA,135223.184,5231.047,N,01325.835,E,1,12,1.0,0.0,M,0.0,M,,*6A
$GPGSA,A,3,01,02,03,04,05,06,07,08,09,10,11,12,1.0,1.0,1.0*30
$GPRMC,135223.184,A,5231.047,N,01325.835,E,38886.1,082.6,160321,000.0,W*79
$GPGGA,135223.185,5231.049,N,01325.852,E,1,12,1.0,0.0,M,0.0,M,,*64
$GPGSA,A,3,01,02,03,04,05,06,07,08,09,10,11,12,1.0,1.0,1.0*30
$GPRMC,135223.185,A,5231.049,N,01325.852,E,38886.0,082.6,160321,000.0,W*76
$GPGGA,135223.186,5231.051,N,01325.869,E,1,12,1.0,0.0,M,0.0,M,,*66
$GPGSA,A,3,01,02,03,04,05,06,07,08,09,10,11,12,1.0,1.0,1.0*30
$GPRMC,135223.186,A,5231.051,N,01325.869,E,38886.0,082.6,160321,000.0,W*74
$GPGGA,135223.187,5231.053,N,01325.887,E,1,12,1.0,0.0,M,0.0,M,,*65
$GPGSA,A,3,01,02,03,04,05,06,07,08,09,10,11,12,1.0,1.0,1.0*30
$GPRMC,135223.187,A,5231.053,N,01325.887,E,38886.0,082.6,160321,000.0,W*77
$GPGGA,135223.188,5231.056,N,01325.904,E,1,12,1.0,0.0,M,0.0,M,,*65
$GPGSA,A,3,01,02,03,04,05,06,07,08,09,10,11,12,1.0,1.0,1.0*30
$GPRMC,135223.188,A,5231.056,N,01325.904,E,38885.9,082.6,160321,000.0,W*7D
$GPGGA,135223.189,5231.058,N,01325.921,E,1,12,1.0,0.0,M,0.0,M,,*6D
$GPGSA,A,3,01,02,03,04,05,06,07,08,09,10,11,12,1.0,1.0,1.0*30
$GPRMC,135223.189,A,5231.058,N,01325.921,E,38885.9,082.6,160321,000.0,W*75
$GPGGA,135223.190,5231.060,N,01325.939,E,1,12,1.0,0.0,M,0.0,M,,*67
$GPGSA,A,3,01,02,03,04,05,06,07,08,09,10,11,12,1.0,1.0,1.0*30
$GPRMC,135223.190,A,5231.060,N,01325.939,E,38885.9,082.6,160321,000.0,W*7F
$GPGGA,135223.191,5231.062,N,01325.956,E,1,12,1.0,0.0,M,0.0,M,,*6D
$GPGSA,A,3,01,02,03,04,05,06,07,08,09,10,11,12,1.0,1.0,1.0*30
$GPRMC,135223.191,A,5231.062,N,01325.956,E,38885.8,082.6,160321,000.0,W*74
$GPGGA,135223.192,5231.065,N,01325.974,E,1,12,1.0,0.0,M,0.0,M,,*69
$GPGSA,A,3,01,02,03,04,05,06,07,08,09,10,11,12,1.0,1.0,1.0*30
$GPRMC,135223.192,A,5231.065,N,01325.974,E,38885.8,082.6,160321,000.0,W*70
$GPGGA,135223.193,5231.067,N,01325.991,E,1,12,1.0,0.0,M,0.0,M,,*61
$GPGSA,A,3,01,02,03,04,05,06,07,08,09,10,11,12,1.0,1.0,1.0*30
$GPRMC,135223.193,A,5231.067,N,01325.991,E,38885.8,082.6,160321,000.0,W*78
$GPGGA,135223.194,5231.069,N,01326.008,E,1,12,1.0,0.0,M,0.0,M,,*62
$GPGSA,A,3,01,02,03,04,05,06,07,08,09,10,11,12,1.0,1.0,1.0*30
$GPRMC,135223.194,A,5231.069,N,01326.008,E,38885.7,082.6,160321,000.0,W*74
$GPGGA,135223.195,5231.071,N,01326.026,E,1,12,1.0,0.0,M,0.0,M,,*66
$GPGSA,A,3,01,02,03,04,05,06,07,08,09,10,11,12,1.0,1.0,1.0*30
$GPRMC,135223.195,A,5231.071,N,01326.026,E,38885.7,082.6,160321,000.0,W*70
$GPGGA,135223.196,5231.074,N,01326.043,E,1,12,1.0,0.0,M,0.0,M,,*63
$GPGSA,A,3,01,02,03,04,05,06,07,08,09,10,11,12,1.0,1.0,1.0*30
$GPRMC,135223.196,A,5231.074,N,01326.043,E,38885.7,082.6,160321,000.0,W*75
$GPGGA,135223.197,5231.076,N,01326.060,E,1,12,1.0,0.0,M,0.0,M,,*61
$GPGSA,A,3,01,02,03,04,05,06,07,08,09,10,11,12,1.0,1.0,1.0*30
$GPRMC,135223.197,A,5231.076,N,01326.060,E,38885.6,082.6,160321,000.0,W*76
$GPGGA,135223.198,5231.078,N,01326.078,E,1,12,1.0,0.0,M,0.0,M,,*69
$GPGSA,A,3,01,02,03,04,05,06,07,08,09,10,11,12,1.0,1.0,1.0*30
$GPRMC,135223.198,A,5231.078,N,01326.078,E,38885.6,082.6,160321,000.0,W*7E
$GPGGA,135223.199,5231.080,N,01326.095,E,1,12,1.0,0.0,M,0.0,M,,*6C
$GPGSA,A,3,01,02,03,04,05,06,07,08,09,10,11,12,1.0,1.0,1.0*30
$GPRMC,135223.199,A,5231.080,N,01326.095,E,38885.6,082.6,160321,000.0,W*7B
$GPGGA,135223.200,5231.083,N,01326.112,E,1,12,1.0,0.0,M,0.0,M,,*62
$GPGSA,A,3,01,02,03,04,05,06,07,08,09,10,11,12,1.0,1.0,1.0*30
$GPRMC,135223.200,A,5231.083,N,01326.112,E,38885.5,082.6,160321,000.0,W*76
$GPGGA,135223.201,5231.085,N,01326.130,E,1,12,1.0,0.0,M,0.0,M,,*65
$GPGSA,A,3,01,02,03,04,05,06,07,08,09,10,11,12,1.0,1.0,1.0*30
$GPRMC,135223.201,A,5231.085,N,01326.130,E,38885.5,082.6,160321,000.0,W*71
$GPGGA,135223.202,5231.087,N,01326.147,E,1,12,1.0,0.0,M,0.0,M,,*64
$GPGSA,A,3,01,02,03,04,05,06,07,08,09,10,11,12,1.0,1.0,1.0*30
$GPRMC,135223.202,A,5231.087,N,01326.147,E,38885.5,082.6,160321,000.0,W*70
$GPGGA,135223.203,5231.089,N,01326.164,E,1,12,1.0,0.0,M,0.0,M,,*6A
$GPGSA,A,3,01,02,03,04,05,06,07,08,09,10,11,12,1.0,1.0,1.0*30
$GPRMC,135223.203,A,5231.089,N,01326.164,E,38885.5,082.6,160321,000.0,W*7E
$GPGGA,135223.204,5231.092,N,01326.182,E,1,12,1.0,0.0,M,0.0,M,,*6F
$GPGSA,A,3,01,02,03,04,05,06,07,08,09,10,11,12,1.0,1.0,1.0*30
$GPRMC,135223.204,A,5231.092,N,01326.182,E,38885.4,082.6,160321,000.0,W*7A
$GPGGA,135223.205,5231.094,N,01326.199,E,1,12,1.0,0.0,M,0.0,M,,*62
$GPGSA,A,3,01,02,03,04,05,06,07,08,09,10,11,12,1.0,1.0,1.0*30
$GPRMC,135223.205,A,5231.094,N,01326.199,E,38885.4,082.6,160321,000.0,W*77
$GPGGA,135223.206,5231.096,N,01326.216,E,1,12,1.0,0.0,M,0.0,M,,*67
$GPGSA,A,3,01,02,03,04,05,06,07,08,09,10,11,12,1.0,1.0,1.0*30
$GPRMC,135223.206,A,5231.096,N,01326.216,E,38885.4,082.6,160321,000.0,W*72
$GPGGA,135223.207,5231.098,N,01326.234,E,1,12,1.0,0.0,M,0.0,M,,*68
$GPGSA,A,3,01,02,03,04,05,06,07,08,09,10,11,12,1.0,1.0,1.0*30
$GPRMC,135223.207,A,5231.098,N,01326.234,E,38885.3,082.6,160321,000.0,W*7A
$GPGGA,135223.208,5231.101,N,01326.251,E,1,12,1.0,0.0,M,0.0,M,,*65
$GPGSA,A,3,01,02,03,04,05,06,07,08,09,10,11,12,1.0,1.0,1.0*30
$GPRMC,135223.208,A,5231.101,N,01326.251,E,38885.3,082.6,160321,000.0,W*77
$GPGGA,135223.209,5231.103,N,01326.268,E,1,12,1.0,0.0,M,0.0,M,,*6C
$GPGSA,A,3,01,02,03,04,05,06,07,08,09,10,11,12,1.0,1.0,1.0*30
$GPRMC,135223.209,A,5231.103,N,01326.268,E,38885.3,082.6,160321,000.0,W*7E
$GPGGA,135223.210,5231.105,N,01326.286,E,1,12,1.0,0.0,M,0.0,M,,*62
$GPGSA,A,3,01,02,03,04,05,06,07,08,09,10,11,12,1.0,1.0,1.0*30
$GPRMC,135223.210,A,5231.105,N,01326.286,E,38885.2,082.6,160321,000.0,W*71
$GPGGA,135223.211,5231.107,N,01326.303,E,1,12,1.0,0.0,M,0.0,M,,*6D
$GPGSA,A,3,01,02,03,04,05,06,07,08,09,10,11,12,1.0,1.0,1.0*30
$GPRMC,135223.211,A,5231.107,N,01326.303,E,38885.2,082.6,160321,000.0,W*7E
$GPGGA,135223.212,5231.110,N,01326.320,E,1,12,1.0,0.0,M,0.0,M,,*69
$GPGSA,A,3,01,02,03,04,05,06,07,08,09,10,11,12,1.0,1.0,1.0*30
$GPRMC,135223.212,A,5231.110,N,01326.320,E,38885.2,082.6,160321,000.0,W*7A
$GPGGA,135223.213,5231.112,N,01326.338,E,1,12,1.0,0.0,M,0.0,M,,*63
$GPGSA,A,3,01,02,03,04,05,06,07,08,09,10,11,12,1.0,1.0,1.0*30
$GPRMC,135223.213,A,5231.112,N,01326.338,E,38885.1,082.6,160321,000.0,W*73
$GPGGA,135223.214,5231.114,N,01326.355,E,1,12,1.0,0.0,M,0.0,M,,*69
$GPGSA,A,3,01,02,03,04,05,06,07,08,09,10,11,12,1.0,1.0,1.0*30
$GPRMC,135223.214,A,5231.114,N,01326.355,E,38885.1,082.6,160321,000.0,W*79
$GPGGA,135223.215,5231.116,N,01326.373,E,1,12,1.0,0.0,M,0.0,M,,*6E
$GPGSA,A,3,01,02,03,04,05,06,07,08,09,10,11,12,1.0,1.0,1.0*30
$GPRMC,135223.215,A,5231.116,N,01326.373,E,38885.1,082.6,160321,000.0,W*7E
$GPGGA,135223.216,5231.119,N,01326.390,E,1,12,1.0,0.0,M,0.0,M,,*6F
$GPGSA,A,3,01,02,03,04,05,06,07,08,09,10,11,12,1.0,1.0,1.0*30
$GPRMC,135223.216,A,5231.119,N,01326.390,E,38885.0,082.6,160321,000.0,W*7E
$GPGGA,135223.217,5231.121,N,01326.407,E,1,12,1.0,0.0,M,0.0,M,,*6C
$GPGSA,A,3,01,02,03,04,05,06,07,08,09,10,11,12,1.0,1.0,1.0*30
$GPRMC,135223.217,A,5231.121,N,01326.407,E,38885.0,082.6,160321,000.0,W*7D
$GPGGA,135223.218,5231.123,N,01326.425,E,1,12,1.0,0.0,M,0.0,M,,*61
$GPGSA,A,3,01,02,03,04,05,06,07,08,09,10,11,12,1.0,1.0,1.0*30
$GPRMC,135223.218,A,5231.123,N,01326.425,E,38885.0,082.6,160321,000.0,W*70
$GPGGA,135223.219,5231.126,N,01326.442,E,1,12,1.0,0.0,M,0.0,M,,*64
$GPGSA,A,3,01,02,03,04,05,06,07,08,09,10,11,12,1.0,1.0,1.0*30
$GPRMC,135223.219,A,5231.126,N,01326.442,E,38884.9,082.6,160321,000.0,W*7D
$GPGGA,135223.220,5231.128,N,01326.459,E,1,12,1.0,0.0,M,0.0,M,,*6A
$GPGSA,A,3,01,02,03,04,05,06,07,08,09,10,11,12,1.0,1.0,1.0*30
$GPRMC,135223.220,A,5231.128,N,01326.459,E,38884.9,082.6,160321,000.0,W*73
$GPGGA,135223.221,5231.130,N,01326.477,E,1,12,1.0,0.0,M,0.0,M,,*6E
$GPGSA,A,3,01,02,03,04,05,06,07,08,09,10,11,12,1.0,1.0,1.0*30
$GPRMC,135223.221,A,5231.130,N,01326.477,E,38884.9,082.6,160321,000.0,W*77
$GPGGA,135223.222,5231.132,N,01326.494,E,1,12,1.0,0.0,M,0.0,M,,*62
$GPGSA,A,3,01,02,03,04,05,06,07,08,09,10,11,12,1.0,1.0,1.0*30
$GPRMC,135223.222,A,5231.132,N,01326.494,E,38884.8,082.6,160321,000.0,W*7A
$GPGGA,135223.223,5231.135,N,01326.511,E,1,12,1.0,0.0,M,0.0,M,,*68
$GPGSA,A,3,01,02,03,04,05,06,07,08,09,10,11,12,1.0,1.0,1.0*30
$GPRMC,135223.223,A,5231.135,N,01326.511,E,38884.8,082.6,160321,000.0,W*70
$GPGGA,135223.224,5231.137,N,01326.529,E,1,12,1.0,0.0,M,0.0,M,,*66
$GPGSA,A,3,01,02,03,04,05,06,07,08,09,10,11,12,1.0,1.0,1.0*30
$GPRMC,135223.224,A,5231.137,N,01326.529,E,38884.8,082.6,160321,000.0,W*7E
$GPGGA,135223.225,5231.139,N,01326.546,E,1,12,1.0,0.0,M,0.0,M,,*60
$GPGSA,A,3,01,02,03,04,05,06,07,08,09,10,11,12,1.0,1.0,1.0*30
$GPRMC,135223.225,A,5231.139,N,01326.546,E,38884.8,082.6,160321,000.0,W*78
$GPGGA,135223.226,5231.141,N,01326.563,E,1,12,1.0,0.0,M,0.0,M,,*6B
$GPGSA,A,3,01,02,03,04,05,06,07,08,09,10,11,12,1.0,1.0,1.0*30
$GPRMC,135223.226,A,5231.141,N,01326.563,E,38884.7,082.6,160321,000.0,W*7C
$GPGGA,135223.227,5231.144,N,01326.581,E,1,12,1.0,0.0,M,0.0,M,,*63
$GPGSA,A,3,01,02,03,04,05,06,07,08,09,10,11,12,1.0,1.0,1.0*30
$GPRMC,135223.227,A,5231.144,N,01326.581,E,38884.7,082.6,160321,000.0,W*74
$GPGGA,135223.228,5231.146,N,01326.598,E,1,12,1.0,0.0,M,0.0,M,,*66
$GPGSA,A,3,01,02,03,04,05,06,07,08,09,10,11,12,1.0,1.0,1.0*30
$GPRMC,135223.228,A,5231.146,N,01326.598,E,38884.7,082.6,160321,000.0,W*71
$GPGGA,135223.229,5231.148,N,01326.615,E,1,12,1.0,0.0,M,0.0,M,,*6F
$GPGSA,A,3,01,02,03,04,05,06,07,08,09,10,11,12,1.0,1.0,1.0*30
$GPRMC,135223.229,A,5231.148,N,01326.615,E,38884.6,082.6,160321,000.0,W*79
$GPGGA,135223.230,5231.150,N,01326.633,E,1,12,1.0,0.0,M,0.0,M,,*6A
$GPGSA,A,3,01,02,03,04,05,06,07,08,09,10,11,12,1.0,1.0,1.0*30
$GPRMC,135223.230,A,5231.150,N,01326.633,E,38884.6,082.6,160321,000.0,W*7C
$GPGGA,135223.231,5231.153,N,01326.650,E,1,12,1.0,0.0,M,0.0,M,,*6D
$GPGSA,A,3,01,02,03,04,05,06,07,08,09,10,11,12,1.0,1.0,1.0*30
$GPRMC,135223.231,A,5231.153,N,01326.650,E,38884.6,082.6,160321,000.0,W*7B
$GPGGA,135223.232,5231.155,N,01326.667,E,1,12,1.0,0.0,M,0.0,M,,*6C
$GPGSA,A,3,01,02,03,04,05,06,07,08,09,10,11,12,1.0,1.0,1.0*30
$GPRMC,135223.232,A,5231.155,N,01326.667,E,38884.5,082.6,160321,000.0,W*79
$GPGGA,135223.233,5231.157,N,01326.685,E,1,12,1.0,0.0,M,0.0,M,,*63
$GPGSA,A,3,01,02,03,04,05,06,07,08,09,10,11,12,1.0,1.0,1.0*30
$GPRMC,135223.233,A,5231.157,N,01326.685,E,38884.5,082.6,160321,000.0,W*76
$GPGGA,135223.234,5231.159,N,01326.702,E,1,12,1.0,0.0,M,0.0,M,,*64
$GPGSA,A,3,01,02,03,04,05,06,07,08,09,10,11,12,1.0,1.0,1.0*30
$GPRMC,135223.234,A,5231.159,N,01326.702,E,38884.5,082.6,160321,000.0,W*71
$GPGGA,135223.235,5231.162,N,01326.719,E,1,12,1.0,0.0,M,0.0,M,,*67
$GPGSA,A,3,01,02,03,04,05,06,07,08,09,10,11,12,1.0,1.0,1.0*30
$GPRMC,135223.235,A,5231.162,N,01326.719,E,38884.4,082.6,160321,000.0,W*73
$GPGGA,135223.236,5231.164,N,01326.737,E,1,12,1.0,0.0,M,0.0,M,,*6E
$GPGSA,A,3,01,02,03,04,05,06,07,08,09,10,11,12,1.0,1.0,1.0*30
$GPRMC,135223.236,A,5231.164,N,01326.737,E,38884.4,082.6,160321,000.0,W*7A
$GPGGA,135223.237,5231.166,N,01326.754,E,1,12,1.0,0.0,M,0.0,M,,*68
$GPGSA,A,3,01,02,03,04,05,06,07,08,09,10,11,12,1.0,1.0,1.0*30
$GPRMC,135223.237,A,5231.166,N,01326.754,E,38884.4,082.6,160321,000.0,W*7C
$GPGGA,135223.238,5231.168,N,01326.772,E,1,12,1.0,0.0,M,0.0,M,,*6D
$GPGSA,A,3,01,02,03,04,05,06,07,08,09,10,11,12,1.0,1.0,1.0*30
$GPRMC,135223.238,A,5231.168,N,01326.772,E,38884.3,082.6,160321,000.0,W*7E
$GPGGA,135223.239,5231.171,N,01326.789,E,1,12,1.0,0.0,M,0.0,M,,*60
$GPGSA,A,3,01,02,03,04,05,06,07,08,09,10,11,12,1.0,1.0,1.0*30
$GPRMC,135223.239,A,5231.171,N,01326.789,E,38884.3,082.6,160321,000.0,W*73
$GPGGA,135223.240,5231.173,N,01326.806,E,1,12,1.0,0.0,M,0.0,M,,*64
$GPGSA,A,3,01,02,03,04,05,06,07,08,09,10,11,12,1.0,1.0,1.0*30
$GPRMC,135223.240,A,5231.173,N,01326.806,E,38884.3,082.6,160321,000.0,W*77
$GPGGA,135223.241,5231.175,N,01326.824,E,1,12,1.0,0.0,M,0.0,M,,*63
$GPGSA,A,3,01,02,03,04,05,06,07,08,09,10,11,12,1.0,1.0,1.0*30
$GPRMC,135223.241,A,5231.175,N,01326.824,E,38884.2,082.6,160321,000.0,W*71
$GPGGA,135223.242,5231.177,N,01326.841,E,1,12,1.0,0.0,M,0.0,M,,*61
$GPGSA,A,3,01,02,03,04,05,06,07,08,09,10,11,12,1.0,1.0,1.0*30
$GPRMC,135223.242,A,5231.177,N,01326.841,E,38884.2,082.6,160321,000.0,W*73
$GPGGA,135223.243,5231.180,N,01326.858,E,1,12,1.0,0.0,M,0.0,M,,*60
$GPGSA,A,3,01,02,03,04,05,06,07,08,09,10,11,12,1.0,1.0,1.0*30
$GPRMC,135223.243,A,5231.180,N,01326.858,E,38884.2,082.6,160321,000.0,W*72
$GPGGA,135223.244,5231.182,N,01326.876,E,1,12,1.0,0.0,M,0.0,M,,*69
$GPGSA,A,3,01,02,03,04,05,06,07,08,09,10,11,12,1.0,1.0,1.0*30
$GPRMC,135223.244,A,5231.182,N,01326.876,E,38884.1,082.6,160321,000.0,W*78
$GPGGA,135223.245,5231.184,N,01326.893,E,1,12,1.0,0.0,M,0.0,M,,*65
$GPGSA,A,3,01,02,03,04,05,06,07,08,09,10,11,12,1.0,1.0,1.0*30
$GPRMC,135223.245,A,5231.184,N,01326.893,E,38884.1,082.6,160321,000.0,W*74
$GPGGA,135223.246,5231.186,N,01326.910,E,1,12,1.0,0.0,M,0.0,M,,*6E
$GPGSA,A,3,01,02,03,04,05,06,07,08,09,10,11,12,1.0,1.0,1.0*30
$GPRMC,135223.246,A,5231.186,N,01326.910,E,38884.1,082.6,160321,000.0,W*7F
$GPGGA,135223.247,5231.189,N,01326.928,E,1,12,1.0,0.0,M,0.0,M,,*6B
$GPGSA,A,3,01,02,03,04,05,06,07,08,09,10,11,12,1.0,1.0,1.0*30
$GPRMC,135223.247,A,5231.189,N,01326.928,E,38884.1,082.6,160321,000.0,W*7A
$GPGGA,135223.248,5231.191,N,01326.945,E,1,12,1.0,0.0,M,0.0,M,,*66
$GPGSA,A,3,01,02,03,04,05,06,07,08,09,10,11,12,1.0,1.0,1.0*30
$GPRMC,135223.248,A,5231.191,N,01326.945,E,38884.0,082.6,160321,000.0,W*76
$GPGGA,135223.249,5231.193,N,01326.962,E,1,12,1.0,0.0,M,0.0,M,,*60
$GPGSA,A,3,01,02,03,04,05,06,07,08,09,10,11,12,1.0,1.0,1.0*30
$GPRMC,135223.249,A,5231.193,N,01326.962,E,38884.0,082.6,160321,000.0,W*70
$GPGGA,135223.250,5231.195,N,01326.980,E,1,12,1.0,0.0,M,0.0,M,,*62
$GPGSA,A,3,01,02,03,04,05,06,07,08,09,10,11,12,1.0,1.0,1.0*30
$GPRMC,135223.250,A,5231.195,N,01326.980,E,38884.0,082.6,160321,000.0,W*72
$GPGGA,135223.251,5231.198,N,01326.997,E,1,12,1.0,0.0,M,0.0,M,,*68
$GPGSA,A,3,01,02,03,04,05,06,07,08,09,10,11,12,1.0,1.0,1.0*30
$GPRMC,135223.251,A,5231.198,N,01326.997,E,38883.9,082.6,160321,000.0,W*76
$GPGGA,135223.252,5231.200,N,01327.014,E,1,12,1.0,0.0,M,0.0,M,,*6A
$GPGSA,A,3,01,02,03,04,05,06,07,08,09,10,11,12,1.0,1.0,1.0*30
$GPRMC,135223.252,A,5231.200,N,01327.014,E,38883.9,082.6,160321,000.0,W*74
$GPGGA,135223.253,5231.202,N,01327.032,E,1,12,1.0,0.0,M,0.0,M,,*6D
$GPGSA,A,3,01,02,03,04,05,06,07,08,09,10,11,12,1.0,1.0,1.0*30
$GPRMC,135223.253,A,5231.202,N,01327.032,E,38883.9,082.6,160321,000.0,W*73
$GPGGA,135223.254,5231.204,N,01327.049,E,1,12,1.0,0.0,M,0.0,M,,*60
$GPGSA,A,3,01,02,03,04,05,06,07,08,09,10,11,12,1.0,1.0,1.0*30
$GPRMC,135223.254,A,5231.204,N,01327.049,E,38883.8,082.6,160321,000.0,W*7F
$GPGGA,135223.255,5231.207,N,01327.066,E,1,12,1.0,0.0,M,0.0,M,,*6F
$GPGSA,A,3,01,02,03,04,05,06,07,08,09,10,11,12,1.0,1.0,1.0*30
$GPRMC,135223.255,A,5231.207,N,01327.066,E,38883.8,082.6,160321,000.0,W*70
$GPGGA,135223.256,5231.209,N,01327.084,E,1,12,1.0,0.0,M,0.0,M,,*6E
$GPGSA,A,3,01,02,03,04,05,06,07,08,09,10,11,12,1.0,1.0,1.0*30
$GPRMC,135223.256,A,5231.209,N,01327.084,E,38883.8,082.6,160321,000.0,W*71
$GPGGA,135223.257,5231.211,N,01327.101,E,1,12,1.0,0.0,M,0.0,M,,*6A
$GPGSA,A,3,01,02,03,04,05,06,07,08,09,10,11,12,1.0,1.0,1.0*30
$GPRMC,135223.257,A,5231.211,N,01327.101,E,38883.7,082.6,160321,000.0,W*7A
$GPGGA,135223.258,5231.213,N,01327.118,E,1,12,1.0,0.0,M,0.0,M,,*6F
$GPGSA,A,3,01,02,03,04,05,06,07,08,09,10,11,12,1.0,1.0,1.0*30
$GPRMC,135223.258,A,5231.213,N,01327.118,E,38883.7,082.6,160321,000.0,W*7F
$GPGGA,135223.259,5231.216,N,01327.136,E,1,12,1.0,0.0,M,0.0,M,,*67
$GPGSA,A,3,01,02,03,04,05,06,07,08,09,10,11,12,1.0,1.0,1.0*30
$GPRMC,135223.259,A,5231.216,N,01327.136,E,38883.7,082.6,160321,000.0,W*77
$GPGGA,135223.260,5231.218,N,01327.153,E,1,12,1.0,0.0,M,0.0,M,,*60
$GPGSA,A,3,01,02,03,04,05,06,07,08,09,10,11,12,1.0,1.0,1.0*30
$GPRMC,135223.260,A,5231.218,N,01327.153,E,38883.6,082.6,160321,000.0,W*71
$GPGGA,135223.261,5231.220,N,01327.170,E,1,12,1.0,0.0,M,0.0,M,,*6B
$GPGSA,A,3,01,02,03,04,05,06,07,08,09,10,11,12,1.0,1.0,1.0*30
$GPRMC,135223.261,A,5231.220,N,01327.170,E,38883.6,082.6,160321,000.0,W*7A
$GPGGA,135223.262,5231.222,N,01327.188,E,1,12,1.0,0.0,M,0.0,M,,*6D
$GPGSA,A,3,01,02,03,04,05,06,07,08,09,10,11,12,1.0,1.0,1.0*30
$GPRMC,135223.262,A,5231.222,N,01327.188,E,38883.6,082.6,160321,000.0,W*7C
$GPGGA,135223.263,5231.225,N,01327.205,E,1,12,1.0,0.0,M,0.0,M,,*6D
$GPGSA,A,3,01,02,03,04,05,06,07,08,09,10,11,12,1.0,1.0,1.0*30
$GPRMC,135223.263,A,5231.225,N,01327.205,E,38883.5,082.6,160321,000.0,W*7F
$GPGGA,135223.264,5231.227,N,01327.223,E,1,12,1.0,0.0,M,0.0,M,,*6C
$GPGSA,A,3,01,02,03,04,05,06,07,08,09,10,11,12,1.0,1.0,1.0*30
$GPRMC,135223.264,A,5231.227,N,01327.223,E,38883.5,082.6,160321,000.0,W*7E
$GPGGA,135223.265,5231.229,N,01327.240,E,1,12,1.0,0.0,M,0.0,M,,*66
$GPGSA,A,3,01,02,03,04,05,06,07,08,09,10,11,12,1.0,1.0,1.0*30
$GPRMC,135223.265,A,5231.229,N,01327.240,E,38883.5,082.6,160321,000.0,W*74
$GPGGA,135223.266,5231.232,N,01327.257,E,1,12,1.0,0.0,M,0.0,M,,*69
$GPGSA,A,3,01,02,03,04,05,06,07,08,09,10,11,12,1.0,1.0,1.0*30
$GPRMC,135223.266,A,5231.232,N,01327.257,E,38883.4,082.6,160321,000.0,W*7A
$GPGGA,135223.267,5231.234,N,01327.275,E,1,12,1.0,0.0,M,0.0,M,,*6E
$GPGSA,A,3,01,02,03,04,05,06,07,08,09,10,11,12,1.0,1.0,1.0*30
$GPRMC,135223.267,A,5231.234,N,01327.275,E,38883.4,082.6,160321,000.0,W*7D
$GPGGA,135223.268,5231.236,N,01327.292,E,1,12,1.0,0.0,M,0.0,M,,*6A
$GPGSA,A,3,01,02,03,04,05,06,07,08,09,10,11,12,1.0,1.0,1.0*30
$GPRMC,135223.268,A,5231.236,N,01327.292,E,38883.4,082.6,160321,000.0,W*79
$GPGGA,135223.269,5231.238,N,01327.309,E,1,12,1.0,0.0,M,0.0,M,,*66
$GPGSA,A,3,01,02,03,04,05,06,07,08,09,10,11,12,1.0,1.0,1.0*30
$GPRMC,135223.269,A,5231.238,N,01327.309,E,38883.4,082.6,160321,000.0,W*75
$GPGGA,135223.270,5231.241,N,01327.327,E,1,12,1.0,0.0,M,0.0,M,,*6C
$GPGSA,A,3,01,02,03,04,05,06,07,08,09,10,11,12,1.0,1.0,1.0*30
$GPRMC,135223.270,A,5231.241,N,01327.327,E,38883.3,082.6,160321,000.0,W*78
$GPGGA,135223.271,5231.243,N,01327.344,E,1,12,1.0,0.0,M,0.0,M,,*6A
$GPGSA,A,3,01,02,03,04,05,06,07,08,09,10,11,12,1.0,1.0,1.0*30
$GPRMC,135223.271,A,5231.243,N,01327.344,E,38883.3,082.6,160321,000.0,W*7E
$GPGGA,135223.272,5231.245,N,01327.361,E,1,12,1.0,0.0,M,0.0,M,,*68
$GPGSA,A,3,01,02,03,04,05,06,07,08,09,10,11,12,1.0,1.0,1.0*30
$GPRMC,135223.272,A,5231.245,N,01327.361,E,38883.3,082.6,160321,000.0,W*7C
$GPGGA,135223.273,5231.247,N,01327.379,E,1,12,1.0,0.0,M,0.0,M,,*62
$GPGSA,A,3,01,02,03,04,05,06,07,08,09,10,11,12,1.0,1.0,1.0*30
$GPRMC,135223.273,A,5231.247,N,01327.379,E,38883.2,082.6,160321,000.0,W*77
$GPGGA,135223.274,5231.250,N,01327.396,E,1,12,1.0,0.0,M,0.0,M,,*62
$GPGSA,A,3,01,02,03,04,05,06,07,08,09,10,11,12,1.0,1.0,1.0*30
$GPRMC,135223.274,A,5231.250,N,01327.396,E,38883.2,082.6,160321,000.0,W*77
$GPGGA,135223.275,5231.252,N,01327.413,E,1,12,1.0,0.0,M,0.0,M,,*6B
$GPGSA,A,3,01,02,03,04,05,06,07,08,09,10,11,12,1.0,1.0,1.0*30
$GPRMC,135223.275,A,5231.252,N,01327.413,E,38883.2,082.6,160321,000.0,W*7E
$GPGGA,135223.276,5231.254,N,01327.431,E,1,12,1.0,0.0,M,0.0,M,,*6E
$GPGSA,A,3,01,02,03,04,05,06,07,08,09,10,11,12,1.0,1.0,1.0*30
$GPRMC,135223.276,A,5231.254,N,01327.431,E,38883.1,082.6,160321,000.0,W*78
$GPGGA,135223.277,5231.256,N,01327.448,E,1,12,1.0,0.0,M,0.0,M,,*63
$GPGSA,A,3,01,02,03,04,05,06,07,08,09,10,11,12,1.0,1.0,1.0*30
$GPRMC,135223.277,A,5231.256,N,01327.448,E,38883.1,082.6,160321,000.0,W*75
$GPGGA,135223.278,5231.259,N,01327.465,E,1,12,1.0,0.0,M,0.0,M,,*6C
$GPGSA,A,3,01,02,03,04,05,06,07,08,09,10,11,12,1.0,1.0,1.0*30
$GPRMC,135223.278,A,5231.259,N,01327.465,E,38883.1,082.6,160321,000.0,W*7A
$GPGGA,135223.279,5231.261,N,01327.483,E,1,12,1.0,0.0,M,0.0,M,,*6E
$GPGSA,A,3,01,02,03,04,05,06,07,08,09,10,11,12,1.0,1.0,1.0*30
$GPRMC,135223.279,A,5231.261,N,01327.483,E,38883.0,082.6,160321,000.0,W*79
$GPGGA,135223.280,5231.263,N,01327.500,E,1,12,1.0,0.0,M,0.0,M,,*60
$GPGSA,A,3,01,02,03,04,05,06,07,08,09,10,11,12,1.0,1.0,1.0*30
$GPRMC,135223.280,A,5231.263,N,01327.500,E,38883.0,082.6,160321,000.0,W*77
$GPGGA,135223.281,5231.265,N,01327.517,E,1,12,1.0,0.0,M,0.0,M,,*61
$GPGSA,A,3,01,02,03,04,05,06,07,08,09,10,11,12,1.0,1.0,1.0*30
$GPRMC,135223.281,A,5231.265,N,01327.517,E,38883.0,082.6,160321,000.0,W*76
$GPGGA,135223.282,5231.268,N,01327.535,E,1,12,1.0,0.0,M,0.0,M,,*6F
$GPGSA,A,3,01,02,03,04,05,06,07,08,09,10,11,12,1.0,1.0,1.0*30
$GPRMC,135223.282,A,5231.268,N,01327.535,E,38882.9,082.6,160321,000.0,W*70
$GPGGA,135223.283,5231.270,N,01327.552,E,1,12,1.0,0.0,M,0.0,M,,*66
$GPGSA,A,3,01,02,03,04,05,06,07,08,09,10,11,12,1.0,1.0,1.0*30
$GPRMC,135223.283,A,5231.270,N,01327.552,E,38882.9,082.6,160321,000.0,W*79
$GPGGA,135223.284,5231.272,N,01327.569,E,1,12,1.0,0.0,M,0.0,M,,*6B
$GPGSA,A,3,01,02,03,04,05,06,07,08,09,10,11,12,1.0,1.0,1.0*30
$GPRMC,135223.284,A,5231.272,N,01327.569,E,38882.9,082.6,160321,000.0,W*74
$GPGGA,135223.285,5231.274,N,01327.587,E,1,12,1.0,0.0,M,0.0,M,,*6C
$GPGSA,A,3,01,02,03,04,05,06,07,08,09,10,11,12,1.0,1.0,1.0*30
$GPRMC,135223.285,A,5231.274,N,01327.587,E,38882.8,082.6,160321,000.0,W*72
$GPGGA,135223.286,5231.277,N,01327.604,E,1,12,1.0,0.0,M,0.0,M,,*64
$GPGSA,A,3,01,02,03,04,05,06,07,08,09,10,11,12,1.0,1.0,1.0*30
$GPRMC,135223.286,A,5231.277,N,01327.604,E,38882.8,082.6,160321,000.0,W*7A
$GPGGA,135223.287,5231.279,N,01327.622,E,1,12,1.0,0.0,M,0.0,M,,*6F
$GPGSA,A,3,01,02,03,04,05,06,07,08,09,10,11,12,1.0,1.0,1.0*30
$GPRMC,135223.287,A,5231.279,N,01327.622,E,38882.8,082.6,160321,000.0,W*71
$GPGGA,135223.288,5231.281,N,01327.639,E,1,12,1.0,0.0,M,0.0,M,,*6D
$GPGSA,A,3,01,02,03,04,05,06,07,08,09,10,11,12,1.0,1.0,1.0*30
$GPRMC,135223.288,A,5231.281,N,01327.639,E,38882.7,082.6,160321,000.0,W*7C
$GPGGA,135223.289,5231.283,N,01327.656,E,1,12,1.0,0.0,M,0.0,M,,*67
$GPGSA,A,3,01,02,03,04,05,06,07,08,09,10,11,12,1.0,1.0,1.0*30
$GPRMC,135223.289,A,5231.283,N,01327.656,E,38882.7,082.6,160321,000.0,W*76
$GPGGA,135223.290,5231.286,N,01327.674,E,1,12,1.0,0.0,M,0.0,M,,*6A
$GPGSA,A,3,01,02,03,04,05,06,07,08,09,10,11,12,1.0,1.0,1.0*30
$GPRMC,135223.290,A,5231.286,N,01327.674,E,38882.7,082.6,160321,000.0,W*7B
$GPGGA,135223.291,5231.288,N,01327.691,E,1,12,1.0,0.0,M,0.0,M,,*6E
$GPGSA,A,3,01,02,03,04,05,06,07,08,09,10,11,12,1.0,1.0,1.0*30
$GPRMC,135223.291,A,5231.288,N,01327.691,E,38882.7,082.6,160321,000.0,W*7F
$GPGGA,135223.292,5231.290,N,01327.708,E,1,12,1.0,0.0,M,0.0,M,,*65
$GPGSA,A,3,01,02,03,04,05,06,07,08,09,10,11,12,1.0,1.0,1.0*30
$GPRMC,135223.292,A,5231.290,N,01327.708,E,38882.6,082.6,160321,000.0,W*75
$GPGGA,135223.293,5231.292,N,01327.726,E,1,12,1.0,0.0,M,0.0,M,,*6A
$GPGSA,A,3,01,02,03,04,05,06,07,08,09,10,11,12,1.0,1.0,1.0*30
$GPRMC,135223.293,A,5231.292,N,01327.726,E,38882.6,082.6,160321,000.0,W*7A
$GPGGA,135223.294,5231.295,N,01327.743,E,1,12,1.0,0.0,M,0.0,M,,*69
$GPGSA,A,3,01,02,03,04,05,06,07,08,09,10,11,12,1.0,1.0,1.0*30
$GPRMC,135223.294,A,5231.295,N,01327.743,E,38882.6,082.6,160321,000.0,W*79
$GPGGA,135223.295,5231.297,N,01327.760,E,1,12,1.0,0.0,M,0.0,M,,*6B
$GPGSA,A,3,01,02,03,04,05,06,07,08,09,10,11,12,1.0,1.0,1.0*30
$GPRMC,135223.295,A,5231.297,N,01327.760,E,38882.5,082.6,160321,000.0,W*78
$GPGGA,135223.296,5231.299,N,01327.778,E,1,12,1.0,0.0,M,0.0,M,,*6F
$GPGSA,A,3,01,02,03,04,05,06,07,08,09,10,11,12,1.0,1.0,1.0*30
$GPRMC,135223.296,A,5231.299,N,01327.778,E,38882.5,082.6,160321,000.0,W*7C
$GPGGA,135223.297,5231.301,N,01327.795,E,1,12,1.0,0.0,M,0.0,M,,*6D
$GPGSA,A,3,01,02,03,04,05,06,07,08,09,10,11,12,1.0,1.0,1.0*30
$GPRMC,135223.297,A,5231.301,N,01327.795,E,38882.5,082.6,160321,000.0,W*7E
$GPGGA,135223.298,5231.304,N,01327.812,E,1,12,1.0,0.0,M,0.0,M,,*67
$GPGSA,A,3,01,02,03,04,05,06,07,08,09,10,11,12,1.0,1.0,1.0*30
$GPRMC,135223.298,A,5231.304,N,01327.812,E,38882.4,082.6,160321,000.0,W*75
$GPGGA,135223.299,5231.306,N,01327.830,E,1,12,1.0,0.0,M,0.0,M,,*64
$GPGSA,A,3,01,02,03,04,05,06,07,08,09,10,11,12,1.0,1.0,1.0*30
$GPRMC,135223.299,A,5231.306,N,01327.830,E,38882.4,082.6,160321,000.0,W*76
$GPGGA,135223.300,5231.308,N,01327.847,E,1,12,1.0,0.0,M,0.0,M,,*6B
$GPGSA,A,3,01,02,03,04,05,06,07,08,09,10,11,12,1.0,1.0,1.0*30
$GPRMC,135223.300,A,5231.308,N,01327.847,E,38882.4,082.6,160321,000.0,W*79
$GPGGA,135223.301,5231.310,N,01327.864,E,1,12,1.0,0.0,M,0.0,M,,*62
$GPGSA,A,3,01,02,03,04,05,06,07,08,09,10,11,12,1.0,1.0,1.0*30
$GPRMC,135223.301,A,5231.310,N,01327.864,E,38882.3,082.6,160321,000.0,W*77
$GPGGA,135223.302,5231.313,N,01327.882,E,1,12,1.0,0.0,M,0.0,M,,*6A
$GPGSA,A,3,01,02,03,04,05,06,07,08,09,10,11,12,1.0,1.0,1.0*30
$GPRMC,135223.302,A,5231.313,N,01327.882,E,38882.3,082.6,160321,000.0,W*7F
$GPGGA,135223.303,5231.315,N,01327.899,E,1,12,1.0,0.0,M,0.0,M,,*67
$GPGSA,A,3,01,02,03,04,05,06,07,08,09,10,11,12,1.0,1.0,1.0*30
$GPRMC,135223.303,A,5231.315,N,01327.899,E,38882.3,082.6,160321,000.0,W*72
$GPGGA,135223.304,5231.317,N,01327.916,E,1,12,1.0,0.0,M,0.0,M,,*64
$GPGSA,A,3,01,02,03,04,05,06,07,08,09,10,11,12,1.0,1.0,1.0*30
$GPRMC,135223.304,A,5231.317,N,01327.916,E,38882.2,082.6,160321,000.0,W*70
$GPGGA,135223.305,5231.319,N,01327.934,E,1,12,1.0,0.0,M,0.0,M,,*6B
$GPGSA,A,3,01,02,03,04,05,06,07,08,09,10,11,12,1.0,1.0,1.0*30
$GPRMC,135223.305,A,5231.319,N,01327.934,E,38882.2,082.6,160321,000.0,W*7F
$GPGGA,135223.306,5231.322,N,01327.951,E,1,12,1.0,0.0,M,0.0,M,,*63
$GPGSA,A,3,01,02,03,04,05,06,07,08,09,10,11,12,1.0,1.0,1.0*30
$GPRMC,135223.306,A,5231.322,N,01327.951,E,38882.2,082.6,160321,000.0,W*77
$GPGGA,135223.307,5231.324,N,01327.968,E,1,12,1.0,0.0,M,0.0,M,,*6E
$GPGSA,A,3,01,02,03,04,05,06,07,08,09,10,11,12,1.0,1.0,1.0*30
$GPRMC,135223.307,A,5231.324,N,01327.968,E,38882.1,082.6,160321,000.0,W*79
$GPGGA,135223.308,5231.326,N,01327.986,E,1,12,1.0,0.0,M,0.0,M,,*63
$GPGSA,A,3,01,02,03,04,05,06,07,08,09,10,11,12,1.0,1.0,1.0*30
$GPRMC,135223.308,A,5231.326,N,01327.986,E,38882.1,082.6,160321,000.0,W*74
$GPGGA,135223.309,5231.328,N,01328.003,E,1,12,1.0,0.0,M,0.0,M,,*67
$GPGSA,A,3,01,02,03,04,05,06,07,08,09,10,11,12,1.0,1.0,1.0*30
$GPRMC,135223.309,A,5231.328,N,01328.003,E,38882.1,082.6,160321,000.0,W*70
$GPGGA,135223.310,5231.331,N,01328.021,E,1,12,1.0,0.0,M,0.0,M,,*67
$GPGSA,A,3,01,02,03,04,05,06,07,08,09,10,11,12,1.0,1.0,1.0*30
$GPRMC,135223.310,A,5231.331,N,01328.021,E,38882.0,082.6,160321,000.0,W*71
$GPGGA,135223.311,5231.333,N,01328.038,E,1,12,1.0,0.0,M,0.0,M,,*6C
$GPGSA,A,3,01,02,03,04,05,06,07,08,09,10,11,12,1.0,1.0,1.0*30
$GPRMC,135223.311,A,5231.333,N,01328.038,E,38882.0,082.6,160321,000.0,W*7A
$GPGGA,135223.312,5231.335,N,01328.055,E,1,12,1.0,0.0,M,0.0,M,,*62
$GPGSA,A,3,01,02,03,04,05,06,07,08,09,10,11,12,1.0,1.0,1.0*30
$GPRMC,135223.312,A,5231.335,N,01328.055,E,38882.0,082.6,160321,000.0,W*74
$GPGGA,135223.313,5231.338,N,01328.073,E,1,12,1.0,0.0,M,0.0,M,,*6A
$GPGSA,A,3,01,02,03,04,05,06,07,08,09,10,11,12,1.0,1.0,1.0*30
$GPRMC,135223.313,A,5231.338,N,01328.073,E,38882.0,082.6,160321,000.0,W*7C
$GPGGA,135223.314,5231.340,N,01328.090,E,1,12,1.0,0.0,M,0.0,M,,*6F
$GPGSA,A,3,01,02,03,04,05,06,07,08,09,10,11,12,1.0,1.0,1.0*30
$GPRMC,135223.314,A,5231.340,N,01328.090,E,38881.9,082.6,160321,000.0,W*73
$GPGGA,135223.315,5231.342,N,01328.107,E,1,12,1.0,0.0,M,0.0,M,,*63
$GPGSA,A,3,01,02,03,04,05,06,07,08,09,10,11,12,1.0,1.0,1.0*30
$GPRMC,135223.315,A,5231.342,N,01328.107,E,38881.9,082.6,160321,000.0,W*7F
$GPGGA,135223.316,5231.344,N,01328.125,E,1,12,1.0,0.0,M,0.0,M,,*66
$GPGSA,A,3,01,02,03,04,05,06,07,08,09,10,11,12,1.0,1.0,1.0*30
$GPRMC,135223.316,A,5231.344,N,01328.125,E,38881.9,082.6,160321,000.0,W*7A
$GPGGA,135223.317,5231.347,N,01328.142,E,1,12,1.0,0.0,M,0.0,M,,*65
$GPGSA,A,3,01,02,03,04,05,06,07,08,09,10,11,12,1.0,1.0,1.0*30
$GPRMC,135223.317,A,5231.347,N,01328.142,E,38881.8,082.6,160321,000.0,W*78
$GPGGA,135223.318,5231.349,N,01328.159,E,1,12,1.0,0.0,M,0.0,M,,*6E
$GPGSA,A,3,01,02,03,04,05,06,07,08,09,10,11,12,1.0,1.0,1.0*30
$GPRMC,135223.318,A,5231.349,N,01328.159,E,38881.8,082.6,160321,000.0,W*73
$GPGGA,135223.319,5231.351,N,01328.177,E,1,12,1.0,0.0,M,0.0,M,,*6A
$GPGSA,A,3,01,02,03,04,05,06,07,08,09,10,11,12,1.0,1.0,1.0*30
$GPRMC,135223.319,A,5231.351,N,01328.177,E,38881.8,082.6,160321,000.0,W*77
$GPGGA,135223.320,5231.353,N,01328.194,E,1,12,1.0,0.0,M,0.0,M,,*6F
$GPGSA,A,3,01,02,03,04,05,06,07,08,09,10,11,12,1.0,1.0,1.0*30
$GPRMC,135223.320,A,5231.353,N,01328.194,E,38881.7,082.6,160321,000.0,W*7D
$GPGGA,135223.321,5231.356,N,01328.211,E,1,12,1.0,0.0,M,0.0,M,,*65
$GPGSA,A,3,01,02,03,04,05,06,07,08,09,10,11,12,1.0,1.0,1.0*30
$GPRMC,135223.321,A,5231.356,N,01328.211,E,38881.7,082.6,160321,000.0,W*77
$GPGGA,135223.322,5231.358,N,01328.229,E,1,12,1.0,0.0,M,0.0,M,,*63
$GPGSA,A,3,01,02,03,04,05,06,07,08,09,10,11,12,1.0,1.0,1.0*30
$GPRMC,135223.322,A,5231.358,N,01328.229,E,38881.7,082.6,160321,000.0,W*71
$GPGGA,135223.323,5231.360,N,01328.246,E,1,12,1.0,0.0,M,0.0,M,,*60
$GPGSA,A,3,01,02,03,04,05,06,07,08,09,10,11,12,1.0,1.0,1.0*30
$GPRMC,135223.323,A,5231.360,N,01328.246,E,38881.6,082.6,160321,000.0,W*73
$GPGGA,135223.324,5231.362,N,01328.263,E,1,12,1.0,0.0,M,0.0,M,,*62
$GPGSA,A,3,01,02,03,04,05,06,07,08,09,10,11,12,1.0,1.0,1.0*30
$GPRMC,135223.324,A,5231.362,N,01328.263,E,38881.6,082.6,160321,000.0,W*71
$GPGGA,135223.325,5231.365,N,01328.281,E,1,12,1.0,0.0,M,0.0,M,,*68
$GPGSA,A,3,01,02,03,04,05,06,07,08,09,10,11,12,1.0,1.0,1.0*30
$GPRMC,135223.325,A,5231.365,N,01328.281,E,38881.6,082.6,160321,000.0,W*7B
$GPGGA,135223.326,5231.367,N,01328.298,E,1,12,1.0,0.0,M,0.0,M,,*61
$GPGSA,A,3,01,02,03,04,05,06,07,08,09,10,11,12,1.0,1.0,1.0*30
$GPRMC,135223.326,A,5231.367,N,01328.298,E,38881.5,082.6,160321,000.0,W*71
$GPGGA,135223.327,5231.369,N,01328.315,E,1,12,1.0,0.0,M,0.0,M,,*6A
$GPGSA,A,3,01,02,03,04,05,06,07,08,09,10,11,12,1.0,1.0,1.0*30
$GPRMC,135223.327,A,5231.369,N,01328.315,E,38881.5,082.6,160321,000.0,W*7A
$GPGGA,135223.328,5231.371,N,01328.333,E,1,12,1.0,0.0,M,0.0,M,,*68
$GPGSA,A,3,01,02,03,04,05,06,07,08,09,10,11,12,1.0,1.0,1.0*30
$GPRMC,135223.328,A,5231.371,N,01328.333,E,38881.5,082.6,160321,000.0,W*78
$GPGGA,135223.329,5231.374,N,01328.350,E,1,12,1.0,0.0,M,0.0,M,,*69
$GPGSA,A,3,01,02,03,04,05,06,07,08,09,10,11,12,1.0,1.0,1.0*30
$GPRMC,135223.329,A,5231.374,N,01328.350,E,38881.4,082.6,160321,000.0,W*78
$GPGGA,135223.330,5231.376,N,01328.367,E,1,12,1.0,0.0,M,0.0,M,,*67
$GPGSA,A,3,01,02,03,04,05,06,07,08,09,10,11,12,1.0,1.0,1.0*30
$GPRMC,135223.330,A,5231.376,N,01328.367,E,38881.4,082.6,160321,000.0,W*76
$GPGGA,135223.331,5231.378,N,01328.385,E,1,12,1.0,0.0,M,0.0,M,,*64
$GPGSA,A,3,01,02,03,04,05,06,07,08,09,10,11,12,1.0,1.0,1.0*30
$GPRMC,135223.331,A,5231.378,N,01328.385,E,38881.4,082.6,160321,000.0,W*75
$GPGGA,135223.332,5231.380,N,01328.402,E,1,12,1.0,0.0,M,0.0,M,,*68
$GPGSA,A,3,01,02,03,04,05,06,07,08,09,10,11,12,1.0,1.0,1.0*30
$GPRMC,135223.332,A,5231.380,N,01328.402,E,38881.3,082.6,160321,000.0,W*7E
$GPGGA,135223.333,5231.383,N,01328.420,E,1,12,1.0,0.0,M,0.0,M,,*6A
$GPGSA,A,3,01,02,03,04,05,06,07,08,09,10,11,12,1.0,1.0,1.0*30
$GPRMC,135223.333,A,5231.383,N,01328.420,E,38881.3,082.6,160321,000.0,W*7C
$GPGGA,135223.334,5231.385,N,01328.437,E,1,12,1.0,0.0,M,0.0,M,,*6D
$GPGSA,A,3,01,02,03,04,05,06,07,08,09,10,11,12,1.0,1.0,1.0*30
$GPRMC,135223.334,A,5231.385,N,01328.437,E,38881.3,082.6,160321,000.0,W*7B
$GPGGA,135223.335,5231.387,N,01328.454,E,1,12,1.0,0.0,M,0.0,M,,*6B
$GPGSA,A,3,01,02,03,04,05,06,07,08,09,10,11,12,1.0,1.0,1.0*30
$GPRMC,135223.335,A,5231.387,N,01328.454,E,38881.3,082.6,160321,000.0,W*7D
$GPGGA,135223.336,5231.389,N,01328.472,E,1,12,1.0,0.0,M,0.0,M,,*62
$GPGSA,A,3,01,02,03,04,05,06,07,08,09,10,11,12,1.0,1.0,1.0*30
$GPRMC,135223.336,A,5231.389,N,01328.472,E,38881.2,082.6,160321,000.0,W*75
$GPGGA,135223.337,5231.392,N,01328.489,E,1,12,1.0,0.0,M,0.0,M,,*6D
$GPGSA,A,3,01,02,03,04,05,06,07,08,09,10,11,12,1.0,1.0,1.0*30
$GPRMC,135223.337,A,5231.392,N,01328.489,E,38881.2,082.6,160321,000.0,W*7A
$GPGGA,135223.338,5231.394,N,01328.506,E,1,12,1.0,0.0,M,0.0,M,,*62
$GPGSA,A,3,01,02,03,04,05,06,07,08,09,10,11,12,1.0,1.0,1.0*30
$GPRMC,135223.338,A,5231.394,N,01328.506,E,38881.2,082.6,160321,000.0,W*75
$GPGGA,135223.339,5231.396,N,01328.524,E,1,12,1.0,0.0,M,0.0,M,,*61
$GPGSA,A,3,01,02,03,04,05,06,07,08,09,10,11,12,1.0,1.0,1.0*30
$GPRMC,135223.339,A,5231.396,N,01328.524,E,38881.1,082.6,160321,000.0,W*75
$GPGGA,135223.340,5231.398,N,01328.541,E,1,12,1.0,0.0,M,0.0,M,,*62
$GPGSA,A,3,01,02,03,04,05,06,07,08,09,10,11,12,1.0,1.0,1.0*30
$GPRMC,135223.340,A,5231.398,N,01328.541,E,38881.1,082.6,160321,000.0,W*76
$GPGGA,135223.341,5231.401,N,01328.558,E,1,12,1.0,0.0,M,0.0,M,,*6C
$GPGSA,A,3,01,02,03,04,05,06,07,08,09,10,11,12,1.0,1.0,1.0*30
$GPRMC,135223.341,A,5231.401,N,01328.558,E,38881.1,082.6,160321,000.0,W*78
$GPGGA,135223.342,5231.403,N,01328.576,E,1,12,1.0,0.0,M,0.0,M,,*61
$GPGSA,A,3,01,02,03,04,05,06,07,08,09,10,11,12,1.0,1.0,1.0*30
$GPRMC,135223.342,A,5231.403,N,01328.576,E,38881.0,082.6,160321,000.0,W*74
$GPGGA,135223.343,5231.405,N,01328.593,E,1,12,1.0,0.0,M,0.0,M,,*6D
$GPGSA,A,3,01,02,03,04,05,06,07,08,09,10,11,12,1.0,1.0,1.0*30
$GPRMC,135223.343,A,5231.405,N,01328.593,E,38881.0,082.6,160321,000.0,W*78
$GPGGA,135223.344,5231.407,N,01328.610,E,1,12,1.0,0.0,M,0.0,M,,*60
$GPGSA,A,3,01,02,03,04,05,06,07,08,09,10,11,12,1.0,1.0,1.0*30
$GPRMC,135223.344,A,5231.407,N,01328.610,E,38881.0,082.6,160321,000.0,W*75
$GPGGA,135223.345,5231.410,N,01328.628,E,1,12,1.0,0.0,M,0.0,M,,*6C
$GPGSA,A,3,01,02,03,04,05,06,07,08,09,10,11,12,1.0,1.0,1.0*30
$GPRMC,135223.345,A,5231.410,N,01328.628,E,38880.9,082.6,160321,000.0,W*71
$GPGGA,135223.346,5231.412,N,01328.645,E,1,12,1.0,0.0,M,0.0,M,,*66
$GPGSA,A,3,01,02,03,04,05,06,07,08,09,10,11,12,1.0,1.0,1.0*30
$GPRMC,135223.346,A,5231.412,N,01328.645,E,38880.9,082.6,160321,000.0,W*7B
$GPGGA,135223.347,5231.414,N,01328.662,E,1,12,1.0,0.0,M,0.0,M,,*64
$GPGSA,A,3,01,02,03,04,05,06,07,08,09,10,11,12,1.0,1.0,1.0*30
$GPRMC,135223.347,A,5231.414,N,01328.662,E,38880.9,082.6,160321,000.0,W*79
$GPGGA,135223.348,5231.416,N,01328.680,E,1,12,1.0,0.0,M,0.0,M,,*65
$GPGSA,A,3,01,02,03,04,05,06,07,08,09,10,11,12,1.0,1.0,1.0*30
$GPRMC,135223.348,A,5231.416,N,01328.680,E,38880.8,082.6,160321,000.0,W*79
$GPGGA,135223.349,5231.419,N,01328.697,E,1,12,1.0,0.0,M,0.0,M,,*6D
$GPGSA,A,3,01,02,03,04,05,06,07,08,09,10,11,12,1.0,1.0,1.0*30
$GPRMC,135223.349,A,5231.419,N,01328.697,E,38880.8,082.6,160321,000.0,W*71
$GPGGA,135223.350,5231.421,N,01328.714,E,1,12,1.0,0.0,M,0.0,M,,*64
$GPGSA,A,3,01,02,03,04,05,06,07,08,09,10,11,12,1.0,1.0,1.0*30
$GPRMC,135223.350,A,5231.421,N,01328.714,E,38880.8,082.6,160321,000.0,W*78
$GPGGA,135223.351,5231.423,N,01328.732,E,1,12,1.0,0.0,M,0.0,M,,*63
$GPGSA,A,3,01,02,03,04,05,06,07,08,09,10,11,12,1.0,1.0,1.0*30
$GPRMC,135223.351,A,5231.423,N,01328.732,E,38880.7,082.6,160321,000.0,W*70
$GPGGA,135223.352,5231.425,N,01328.749,E,1,12,1.0,0.0,M,0.0,M,,*6A
$GPGSA,A,3,01,02,03,04,05,06,07,08,09,10,11,12,1.0,1.0,1.0*30
$GPRMC,135223.352,A,5231.425,N,01328.749,E,38880.7,082.6,160321,000.0,W*79
$GPGGA,135223.353,5231.428,N,01328.766,E,1,12,1.0,0.0,M,0.0,M,,*6B
$GPGSA,A,3,01,02,03,04,05,06,07,08,09,10,11,12,1.0,1.0,1.0*30
$GPRMC,135223.353,A,5231.428,N,01328.766,E,38880.7,082.6,160321,000.0,W*78
$GPGGA,135223.354,5231.430,N,01328.784,E,1,12,1.0,0.0,M,0.0,M,,*69
$GPGSA,A,3,01,02,03,04,05,06,07,08,09,10,11,12,1.0,1.0,1.0*30
$GPRMC,135223.354,A,5231.430,N,01328.784,E,38880.6,082.6,160321,000.0,W*7B
$GPGGA,135223.355,5231.432,N,01328.801,E,1,12,1.0,0.0,M,0.0,M,,*68
$GPGSA,A,3,01,02,03,04,05,06,07,08,09,10,11,12,1.0,1.0,1.0*30
$GPRMC,135223.355,A,5231.432,N,01328.801,E,38880.6,082.6,160321,000.0,W*7A
$GPGGA,135223.356,5231.434,N,01328.818,E,1,12,1.0,0.0,M,0.0,M,,*65
$GPGSA,A,3,01,02,03,04,05,06,07,08,09,10,11,12,1.0,1.0,1.0*30
$GPRMC,135223.356,A,5231.434,N,01328.818,E,38880.6,082.6,160321,000.0,W*77
$GPGGA,135223.357,5231.437,N,01328.836,E,1,12,1.0,0.0,M,0.0,M,,*6B
$GPGSA,A,3,01,02,03,04,05,06,07,08,09,10,11,12,1.0,1.0,1.0*30
$GPRMC,135223.357,A,5231.437,N,01328.836,E,38880.6,082.6,160321,000.0,W*79
$GPGGA,135223.358,5231.439,N,01328.853,E,1,12,1.0,0.0,M,0.0,M,,*69
$GPGSA,A,3,01,02,03,04,05,06,07,08,09,10,11,12,1.0,1.0,1.0*30
$GPRMC,135223.358,A,5231.439,N,01328.853,E,38880.5,082.6,160321,000.0,W*78
$GPGGA,135223.359,5231.441,N,01328.871,E,1,12,1.0,0.0,M,0.0,M,,*67
$GPGSA,A,3,01,02,03,04,05,06,07,08,09,10,11,12,1.0,1.0,1.0*30
$GPRMC,135223.359,A,5231.441,N,01328.871,E,38880.5,082.6,160321,000.0,W*76
$GPGGA,135223.360,5231.443,N,01328.888,E,1,12,1.0,0.0,M,0.0,M,,*69
$GPGSA,A,3,01,02,03,04,05,06,07,08,09,10,11,12,1.0,1.0,1.0*30
